,District,Venue,Venue Category,Venue Latitude,Venue Longitude
0,Bang Kapi,ตลาดนัดแฟลตคลองจั่น,Flea Market,13.770105448298283,100.6491237635745
1,Bang Kapi,ข้าวแกงปักษ์ใต้ แม่ยาใจ,Thai Restaurant,13.77082159577988,100.64862778236524
2,Bang Kapi,Farm Design (ฟาร์มดีไซน์),Dessert Shop,13.767466374337083,100.64205152612568
3,Bang Kapi,ฮั่วเซ่งฮง (和成豐),Chinese Restaurant,13.765880239760733,100.64183535638115
4,Bang Kapi,ซ้งโภชนา ลูกชิ้นปลาทำเอง,Noodle House,13.761781808005477,100.64801004775687
5,Bang Kapi,Burger King (เบอร์เกอร์ คิง),Fast Food Restaurant,13.767082878594593,100.64300094374337
6,Bang Kapi,Starbucks (สตาร์บัคส์),Coffee Shop,13.767339430556717,100.6421364879654
7,Bang Kapi,H&M,Clothing Store,13.765971650347321,100.64247094094755
8,Bang Kapi,The Mall Bangkapi (เดอะมอลล์ บางกะปิ),Shopping Mall,13.766343053793804,100.64236418452622
9,Bang Kapi,UNIQLO (ยูนิโคล่) ユニクロ,Clothing Store,13.767216684171144,100.64271718667091
10,Bang Kapi,บ้านญวน ครัวเวียดนาม,Vietnamese Restaurant,13.764343307067051,100.65272278879637
11,Bang Kapi,ร้านข้าวแกงครัวปักษ์ใต้คลองจั่น,Thai Restaurant,13.770482117516332,100.64863847652809
12,Bang Kapi,Baan Suan Massage (บ้านสวนมาสสาจ),Massage Studio,13.765411515558778,100.65119246035142
13,Bang Kapi,Suan Son (สวนสน),Park,13.762939676580062,100.64889465674915
14,Bang Kapi,TrueCoffee (ทรูคอฟฟี่),Coffee Shop,13.767280392393051,100.64248794868715
15,Bang Kapi,RABIKA Coffee,Coffee Shop,13.770871948161025,100.64713303296053
16,Bang Kapi,After You (อาฟเตอร์ ยู),Dessert Shop,13.766120681554108,100.64182537778694
17,Bang Kapi,ส้มตำปากหมา (อีสานพัฒนา),Som Tum Restaurant,13.761857743910575,100.65004426509996
18,Bang Kapi,Sizzler (ซิซซ์เลอร์),Steakhouse,13.766945177261887,100.64194002252107
19,Bang Kapi,Fuji (ฟูจิ),Japanese Restaurant,13.767323713017078,100.64201322621498
20,Bang Kapi,Fantasia Lagoon (แฟนตาเซีย ลากูน),Water Park,13.766519316478693,100.64254059545704
21,Bang Kapi,Santa Fé Steak (ซานตา เฟ่ สเต็ก),Steakhouse,13.766487255625043,100.64256370231384
22,Bang Kapi,Starbucks (สตาร์บัคส์),Coffee Shop,13.766454911650891,100.6425326647028
23,Bang Kapi,"""PA"" CARTOON (ป่าการ์ตูน)",Comic Shop,13.765581998177392,100.64180869991479
24,Bang Kapi,โจ๊กข้อไก่ลำสาลี,Thai Restaurant,13.762712501851793,100.64581349941898
25,Bang Kapi,Swensen's (สเวนเซ่นส์),Ice Cream Shop,13.766657956932681,100.64188537407402
26,Bang Kapi,Amor (อะมอร์),Bakery,13.767474365750042,100.64203284288645
27,Bang Kapi,CoCoICHIBANYA (โคโค่อิฉิบันยะ),Japanese Curry Restaurant,13.76744586711283,100.64210132035574
28,Bang Kapi,Batcat Museum & Toys Thailand,Museum,13.763892149313712,100.64542506727466
29,Bang Kapi,ร่วมจิตร ปูดอง,Thai Restaurant,13.768421591642694,100.64104705781558
30,Bang Kapi,ขนมจีนบางกอก (Kanom Jeen Bangkok),Noodle House,13.767459869890905,100.64198857760009
31,Bang Kapi,The Pizza Company (เดอะ พิซซ่า คอมปะนี),Pizza Place,13.767474056108256,100.64214437493581
32,Bang Kapi,Ko Boo Rod Sing (โกบู๊รสซิ่ง),Noodle House,13.774970959332979,100.64864153378917
33,Bang Kapi,Sinthorn Steak House (สินธร สเต็กเฮ้าส์),Steakhouse,13.76212574377026,100.63982551314805
34,Bang Kapi,Tea Pe Ooh,Coffee Shop,13.762931001059298,100.64793554370354
35,Bang Kapi,ก๋วยเตี๋ยวเนื้อสวนสน,Noodle House,13.756429285651965,100.65161963560675
36,Bang Kapi,Bar B Q Plaza (บาร์บีคิว พลาซ่า),BBQ Joint,13.767407783838014,100.64386426407818
37,Bang Kapi,MK (เอ็มเค),Hotpot Restaurant,13.766641959568677,100.6418463336122
38,Bang Kapi,ZEN (ZEN Japanese Restaurant),Japanese Restaurant,13.766081514439628,100.64192960640959
39,Bang Kapi,จิ้มจุ่มพระราม 9,Thai Restaurant,13.753709718686112,100.64557884447167
40,Bang Kapi,กาแฟหน้าบ้าน,Coffee Shop,13.758847463747504,100.64998753595502
41,Bang Kapi,ศูนย์ฮอนด้า World speed (ลำสาลี),Motorcycle Shop,13.759263977859419,100.6456240645994
42,Bang Kapi,Amway Shop (แอมเวย์ ช็อป),Department Store,13.766162323482584,100.65479469056457
43,Bang Kapi,สนามฟุตบอล Soccer Master @ศรีนครินทร์ [ปั๊ม Caltex],Soccer Field,13.754903208015945,100.64726571497118
44,Bang Kapi,Major Bowl,Bowling Alley,13.76836503058048,100.6437940398108
45,Bang Kapi,Major Cineplex Bangkapi (เมเจอร์ ซีนีเพล็กซ์ บางกะปิ),Multiplex,13.76719893835215,100.64423113695204
46,Bang Kapi,Genki Sushi (เกงกิซูชิ),Sushi Restaurant,13.765962693929316,100.6420455163569
47,Bang Kapi,Fuji (ฟูจิ),Japanese Restaurant,13.767197415592804,100.64193987740892
48,Bang Kapi,SF Cinema City (เอสเอฟ ซีเนม่า ซิตี้),Movie Theater,13.766421474084005,100.64250688542977
49,Bang Kapi,Seobinggo (ซอบิงโก),Dessert Shop,13.765652583857287,100.64269854052091
50,Bang Kapi,ก๋วยเตี๋ยวไก่แม่ศรีเรือน (Maesriruen),Thai Restaurant,13.76728989623021,100.64229137573851
51,Bang Kapi,on the table (ออน เดอะ เทเบิล),Japanese Restaurant,13.766165960373407,100.64197468337387
52,Bang Kapi,Power Mall,Electronics Store,13.767200653368924,100.64258306705182
53,Bang Kapi,ผัดไทกุ้งสด(ลุงเปี๊ยก),Noodle House,13.774407145203508,100.65036103465158
54,Bang Kapi,ตี๋เตี๋ยวยำ (ก๋วยเตี๋ยวหมูต้มยำ),Noodle House,13.779177144233651,100.6488192812281
55,Bang Kapi,BE trend (บีเทรนด์),Gift Shop,13.766769,100.642502
56,Bang Kapi,Fitness First (ฟิตเนส เฟิรส์ท),Gym / Fitness Center,13.767303579246448,100.6420029966883
57,Bang Kapi,McDonald's & McCafé (แมคโดนัลด์ & แมคคาเฟ่),Fast Food Restaurant,13.767289423961337,100.64260783393257
58,Bang Kapi,Starbucks (สตาร์บัคส์),Coffee Shop,13.771651707182864,100.63639964163184
59,Bang Kapi,Bar B Q Plaza (บาร์บีคิว พลาซ่า),BBQ Joint,13.765814547219211,100.64207577844448
60,Bang Kapi,MK (เอ็มเค),Hotpot Restaurant,13.766595835176373,100.64184603322622
61,Bang Kapi,Makro (แม็คโคร),Warehouse Store,13.765492623290516,100.64016270476083
62,Bang Kapi,The AMAZON's embrace,Coffee Shop,13.765634781834107,100.64180975468895
63,Bang Kapi,แก้มลิง แยกนิด้า,Dive Bar,13.773867600174176,100.65494720979217
64,Bang Kapi,Tummour (ตำมั่ว),Restaurant,13.766069594185248,100.64198973107895
65,Bang Kapi,ZARA,Clothing Store,13.767028378878729,100.643009463491
66,Bang Kapi,Krispy Kreme (คริสปี้ ครีม),Donut Shop,13.767725201490466,100.64191528494965
67,Bang Kapi,ร้านส้มตำ น้องฝ้าย,Som Tum Restaurant,13.757537552906369,100.64460309273395
68,Bang Kapi,Sukishi & Sukishi Buffet (ซูกิชิ บาร์บีคิว และ ซูกิชิ บุฟเฟ่ต์),Japanese Restaurant,13.767286286656287,100.64261980769948
69,Bang Kapi,Halal Home Suki & BBQ (ฮาลาล โฮม สุกี้ & บาบีคิว),Halal Restaurant,13.766338381369117,100.6575948109484
70,Bang Kapi,The Mall Department Store (ห้างสรรพสินค้าเดอะมอลล์),Department Store,13.766457158103062,100.64191319676604
71,Bang Kapi,BonChon Chicken (บอนชอน ชิกเก้น),Wings Joint,13.767687855812985,100.6419401409072
72,Bang Kapi,ข้าวซอยล้านนา,Thai Restaurant,13.781328,100.64264
73,Bang Kapi,Tavimook Badminton (ทวิมุข แบตมินตัน),Badminton Court,13.76018020258292,100.63781630983361
74,Bang Kapi,Bangwan Station (บางหวาน),Dessert Shop,13.753630189770702,100.65531424163791
75,Bang Kapi,Au Bon Pain (โอ บอง แปง),Café,13.759507524912145,100.6365333074459
76,Bang Kapi,Kobune,Japanese Restaurant,13.767585177434935,100.64198957975036
77,Bang Kapi,AIS Shop (เอไอเอส ช็อป),Mobile Phone Shop,13.767291786582433,100.64257467003685
78,Bang Kapi,Khlong Chan Botanical Park (สวนพฤกษชาติคลองจั่น),Botanical Garden,13.77756760187881,100.64755439758301
79,Bang Kapi,ตลาดเช้าสวนพฤกษชาติ คลองจั่น,Shopping Mall,13.776009442155786,100.64896133556894
80,Bang Kapi,iStudio,Electronics Store,13.765944737851685,100.64181419976622
81,Bang Kapi,ราชาบะหมี่เกี๊ยว,Noodle House,13.781514284626542,100.64126356201822
82,Bang Kapi,Oishi Ramen (โออิชิ ราเมน),Ramen Restaurant,13.766525814902005,100.64187009073106
83,Bang Kapi,Tawanna (ตะวันนา),Flea Market,13.766898345992754,100.64141271291463
84,Bang Kapi,KFC (เคเอฟซี),Fast Food Restaurant,13.767517460452066,100.64209764606368
85,Bang Kapi,เรือนร้อยเอ็ด,Thai Restaurant,13.76815353418597,100.6325538909385
86,Bang Kapi,Happyland Market (ตลาดแฮ๊ปปี้แลนด์),Market,13.770929877382107,100.6421148777008
87,Bang Kapi,Pancake Café (แพนเค้ก คาเฟ่),Dessert Shop,13.76585540390422,100.6418059920031
88,Bang Kapi,The Grand FourWings Convention Hotel (โรมแรมเดอะแกรนด์โฟร์วิงส์),Hotel,13.754513790758597,100.64606566685804
89,Bang Kapi,Jeffer Steak (เจฟเฟอร์),Steakhouse,13.767438130522493,100.64200466227425
90,Bang Kapi,Hachiban Ramen (ฮะจิบัง ราเมน),Ramen Restaurant,13.767332368286967,100.64216795241903
91,Bang Kapi,7-Eleven (เซเว่น อีเลฟเว่น),Convenience Store,13.761673082813022,100.63665299173323
92,Bang Kapi,MetroPoint Bangkok Hotel,Hotel,13.768531304564508,100.6323795070085
93,Bang Kapi,Shabu Shabu Nangnai (ชาบู ชาบู นางใน),Shabu-Shabu Restaurant,13.753649349673202,100.65540858166683
94,Bang Kapi,Narai Pizzeria (นารายณ์พิซเซอเรีย),Pizza Place,13.767332874389801,100.64208570960963
95,Bang Kapi,Apichart Seafood Restaurant (อภิชาติ ซีฟู๊ด),Seafood Restaurant,13.779827519293535,100.65078997534407
96,Bang Kapi,จุ่มแซ่บหม้อดินยโสธร,Som Tum Restaurant,13.75194443326106,100.64024673911516
97,Bang Kapi,ขุณ The E-san Cuisine,Thai Restaurant,13.766394814299222,100.64190212378158
98,Bang Kapi,เป็ดย่างพงษ์กี่,Chinese Restaurant,13.771519920166563,100.66423038445848
99,Bang Kapi,Many Stories,Café,13.779936318528863,100.65070269070037
100,Bang Khae,Starbucks (สตาร์บัคส์),Coffee Shop,13.694459519051328,100.40811061891607
101,Bang Khae,McDonald's & McCafé (แมคโดนัลด์ & แมคคาเฟ่),Fast Food Restaurant,13.695474416840929,100.40785175237913
102,Bang Khae,ก๋วยเตี๋ยวเนื้อนายอ้วน,Noodle House,13.701331,100.40764
103,Bang Khae,The Explace (ดิ เอ็กซ์เพลส),Shopping Mall,13.694442469963036,100.40797932116867
104,Bang Khae,Three Mangoes (ทรี แมงโก้),Beer Garden,13.687191939230317,100.40773887176992
105,Bang Khae,Koff & Bun By ไต้แป๊ะ,Café,13.68417,100.41411
106,Bang Khae,หนองใหญ่,Thai Restaurant,13.695171466084249,100.42207717895508
107,Bang Khae,Nai Sa Nga Noodle (ก๋วยเตี๋ยวนายสง่า),Noodle House,13.689377951087183,100.40690927117107
108,Bang Khae,Starbucks (สตาร์บัคส์),Coffee Shop,13.712227719065476,100.40775269612728
109,Bang Khae,After You (อาฟเตอร์ ยู),Dessert Shop,13.713527800016392,100.40810593611484
110,Bang Khae,ปฐมโอชา,Noodle House,13.697302193638969,100.40702842315257
111,Bang Khae,บิ๊กจ๊อดชวนชิม,Thai Restaurant,13.692416928258934,100.42304951116269
112,Bang Khae,Year of the Cat Cafe,Pet Café,13.685380420950015,100.42013556102712
113,Bang Khae,The Mall Bangkae (เดอะมอลล์ บางแค),Shopping Mall,13.712344409882357,100.40809186345287
114,Bang Khae,UNIQLO (ยูนิโคล่),Clothing Store,13.713526070485427,100.40808174170506
115,Bang Khae,Fitness First (ฟิตเนส เฟิรส์ท),Gym / Fitness Center,13.711601685196074,100.40841458540284
116,Bang Khae,The Mall Department Store (ห้างสรรพสินค้าเดอะมอลล์),Department Store,13.713639416924902,100.40806518690492
117,Bang Khae,Swensen's (สเวนเซ่นส์),Ice Cream Shop,13.713354322841399,100.40811190246885
118,Bang Khae,Fuku Matcha,Bubble Tea Shop,13.713562995939753,100.40806120371353
119,Bang Khae,Gourmet Market (กูร์เมต์ มาร์เก็ต),Supermarket,13.71369406267798,100.40778081005544
120,Bang Khae,OOTOYA (โอโตยะ),Japanese Restaurant,13.713660188042084,100.40799337841851
121,Bang Khae,MK (เอ็มเค),Hotpot Restaurant,13.713703072291574,100.40813469743438
122,Bang Khae,Bar B Q Plaza (บาร์บีคิว พลาซ่า),BBQ Joint,13.71357506552998,100.40812636142381
123,Bang Khae,S&P (เอส แอนด์ พี),Restaurant,13.713598403374336,100.40803835096203
124,Bang Khae,นายแอร์หมูจุ่ม,Thai Restaurant,13.688215767603479,100.40772876060535
125,Bang Khae,Sizzler (ซิซซ์เลอร์),Steakhouse,13.713599374359491,100.40809217261184
126,Bang Khae,Hachiban Ramen (ฮะจิบัง ราเมน),Ramen Restaurant,13.71196398834708,100.40800478831162
127,Bang Khae,Naiin (ร้านนายอินทร์),Bookstore,13.713207222545215,100.40710035386776
128,Bang Khae,Amor (อะมอร์),Bakery,13.713538668681293,100.40809154498429
129,Bang Khae,Baan M' Ngam (บ้านไม้งาม),Asian Restaurant,13.712347102340184,100.41160690032872
130,Bang Khae,Fantasia Lagoon (แฟนตาเซีย ลากูน),Water Park,13.712996096369803,100.40765990424947
131,Bang Khae,The Pizza Company (เดอะ พิซซ่า คอมปะนี),Pizza Place,13.711812397954887,100.40810810691525
132,Bang Khae,Platinum Lounge,Lounge,13.71372204945756,100.40715524005698
133,Bang Khae,Sukishi Bar B Q (ซูกิชิ บาร์บีคิว),BBQ Joint,13.71199324545945,100.40797330178061
134,Bang Khae,Daifuku Story (ไดฟุกุ สตอรี่) だいふく ストーリー,Dessert Shop,13.713033474969059,100.40813349836557
135,Bang Khae,ครัวกาญจน์,Thai Restaurant,13.708280021497078,100.42050088333254
136,Bang Khae,KFC (เคเอฟซี),Fast Food Restaurant,13.711869334152468,100.40803667581572
137,Bang Khae,Burger King,Fast Food Restaurant,13.709250594200709,100.3967845910579
138,Bang Khae,The Shaker Cafe (เดอะ เชคเกอร์ คาเฟ่),Café,13.708664625872721,100.40448602220188
139,Bang Khae,SF Cinema City (เอส เอฟ ซีเนม่า ซิตี้),Multiplex,13.71386173444767,100.40789754706792
140,Bang Khae,Studio 7 (สตูดิโอ เซเว่น),Electronics Store,13.71329887728907,100.40808556111921
141,Bang Khae,CoCoICHIBANYA (โคโค่อิฉิบันยะ),Japanese Curry Restaurant,13.71359652578079,100.40809960090677
142,Bang Khae,Puff & Pie (พัฟ แอนด์ พาย),Café,13.710362792755074,100.39914445487851
143,Bang Khae,SE-ED Book Center (ซีเอ็ดบุ๊คเซ็นเตอร์),Bookstore,13.712124113524354,100.40788936255404
144,Bang Khae,H&M,Clothing Store,13.712213100837609,100.40790383065892
145,Bang Khae,7-eleven,Convenience Store,13.688424055831703,100.40572343578168
146,Bang Khae,Jiang Fish Ball (เจียงลูกชิ้นปลา (Jiang Fish Ball)),Dim Sum Restaurant,13.688589551038117,100.40777982660694
147,Bang Khae,Swensen's (สเวนเซ่นส์),Ice Cream Shop,13.711956292585118,100.408032446903
148,Bang Khae,Umm!..Milk (อืมม!..มิลค์),Dessert Shop,13.713624344735157,100.4080935254154
149,Bang Khae,Yayoi (ยาโยอิ),Japanese Restaurant,13.713607667931939,100.40809443075356
150,Bang Khae,Power Mall (พาวเวอร์ มอลล์),Electronics Store,13.713099727412347,100.40780782699585
151,Bang Khae,นายแอร์ หมูจุ่ม (Nai Air),Hotpot Restaurant,13.684742333125795,100.40835093116164
152,Bang Khae,Ninety-Four Coffee (ไนน์ตี้-โฟร์ คอฟฟี่),Café,13.712892528321552,100.40751178763564
153,Bang Khae,Kanlapaphruek Park (Suan Liap) (สวนกัลปพฤกษ์ (สวนเลียบ)),Park,13.68329717502639,100.40751727343185
154,Bang Khae,7-Eleven (เซเว่น อีเลฟเว่น),Convenience Store,13.698894115641066,100.42128218160059
155,Bang Khae,Sampeng 2 (สำเพ็ง 2 (Sampeng 2) 新叁聘),Shopping Plaza,13.679486063889472,100.41365060131544
156,Bang Khae,Fuji (ฟูจิ),Japanese Restaurant,13.71264284031286,100.40809598071058
157,Bang Khae,มาม่าหม้อไฟ,Diner,13.682882985939273,100.41553963951007
158,Bang Khae,FlashMob,Bar,13.68760631930444,100.4255729363258
159,Bang Khae,Im Pla Phao (อิ่มปลาเผา),Seafood Restaurant,13.68319046645841,100.4187197170075
160,Bang Khae,The 5-Region Floating Market (ตลาดน้ำ 5 ภาค สำเพ็ง 2),Night Market,13.678884711750166,100.41397428578304
161,Bang Khae,Wong Waen Center (วงแหวนเซ็นเตอร์),Shopping Mall,13.688680891362104,100.40686995177388
162,Bang Khae,ฺBMTA Bus Stop วงแหวนเซ็นเตอร์ (Wong Waen Center),Bus Stop,13.688798884005072,100.40700161004149
163,Bang Khae,ตลาดนัดกัลปพฤกษ์,Night Market,13.685297947986795,100.42257714500197
164,Bang Khae,ซ.วงศาโรจน์,Track,13.695919008541978,100.41863569954282
165,Bang Khae,นันท์ ซีฟู๊ดส์,Seafood Restaurant,13.70153,100.420904
166,Bang Khae,นายหนวดต้นตำหรับสุกี้แห้ง จานร้อน,Thai Restaurant,13.694529410061449,100.42215395023793
167,Bang Khae,ร้านโจ๊กอาอี่หมูปิ้งอาฮั้ว,Asian Restaurant,13.69451729276177,100.42224234680661
168,Bang Khae,แยกท่าเกษตร,Intersection,13.704639183922918,100.42106820331064
169,Bang Khae,Chester's Grill (เชสเตอร์ กริล),Fast Food Restaurant,13.692610190419511,100.39372703142503
170,Bang Khae,ห้องฟิตเน็ต LPN,Gym,13.706954824237199,100.42168234066796
171,Bang Khae,Climb Central Bangkok,Climbing Gym,13.685268642529453,100.42199850071484
172,Bang Khae,Friendly Cup Fresh Coffee,Coffee Shop,13.684705571697169,100.42166075981135
173,Bang Khen,โครงการไม้ดอกไม้ประดับ,Garden Center,13.870036337860201,100.59517636747196
174,Bang Khen,Starbucks (สตาร์บัคส์),Coffee Shop,13.871762361228546,100.60154698413031
175,Bang Khen,SE-ED Book Center (ซีเอ็ดบุ๊คเซ็นเตอร์),Bookstore,13.87904001123805,100.60042178231777
176,Bang Khen,Bar B Q Plaza (บาร์บีคิว พลาซ่า),BBQ Joint,13.871992826082671,100.60174358476127
177,Bang Khen,ต้มเลือดหมูตำลึง & ข้าวหมูทอด,Asian Restaurant,13.87432128603513,100.60025537344858
178,Bang Khen,Tops market (ท็อปส์ มาร์เก็ต),Supermarket,13.872146449128296,100.60248844292134
179,Bang Khen,Goong Korean Restaurant,Korean Restaurant,13.872017879746355,100.60172005362327
180,Bang Khen,Royal Thai Army Golf Course (สนามกอล์ฟทหารบก),Golf Course,13.868113987665202,100.60515957112955
181,Bang Khen,MK (เอ็มเค),Hotpot Restaurant,13.87979480005421,100.59987323862039
182,Bang Khen,ข้าวต้มขาไก่,Asian Restaurant,13.869117354893843,100.59279927912165
183,Bang Khen,Café Amazon (คาเฟ่ อเมซอน),Coffee Shop,13.880208712211909,100.5988294224983
184,Bang Khen,ไทยอีสาน 2005,Som Tum Restaurant,13.874962823475535,100.59972059815966
185,Bang Khen,Hachiban Ramen (ฮะจิบัง ราเมน),Ramen Restaurant,13.871978528742202,100.6016467194825
186,Bang Khen,Naiin (นายอินทร์),Bookstore,13.871902254285406,100.60165903810878
187,Bang Khen,Snow Flake (สโนว์ เฟลค),Dessert Shop,13.871942030860167,100.60169037189979
188,Bang Khen,Thiphawan (ทิพวรรณ),Vietnamese Restaurant,13.868736002430898,100.59255938628729
189,Bang Khen,Swensen's (สเวนเซ่นส์),Ice Cream Shop,13.87196756133753,100.60169374745948
190,Bang Khen,Central Department Store (ห้างสรรพสินค้าเซ็นทรัล),Department Store,13.871925579096553,100.60168456322097
191,Bang Khen,MK (เอ็มเค),Hotpot Restaurant,13.872005262060995,100.60170527531896
192,Bang Khen,B2S (บีทูเอส),Bookstore,13.871836693992517,100.60204997303266
193,Bang Khen,7-Eleven (เซเว่น อีเลฟเว่น),Convenience Store,13.882810971103224,100.58450152880214
194,Bang Khen,Fuji (ฟูจิ),Japanese Restaurant,13.872023383890376,100.60158303042914
195,Bang Khen,S&P (เอส แอนด์ พี),Bakery,13.871910044918254,100.60161490652084
196,Bang Khen,Grand Ramindra 5 (แกรนด์ รามอินทรา 5),Shopping Plaza,13.87050130647294,100.60541950073875
197,Bang Khen,ข้าวหมูแดงนครปฐม,Asian Restaurant,13.874220468522639,100.60024178710405
198,Bang Khen,CentralPlaza Ramindra (เซ็นทรัลพลาซา รามอินทรา),Shopping Mall,13.87205595137944,100.60171086439678
199,Bang Khen,Mountain B.I.T.E Eat / Drink / Joy,Music Venue,13.867664972194389,100.59165174505614
200,Bang Khen,Santa Fé Steak (ซานตา เฟ่ สเต็ก),Steakhouse,13.872020278173414,100.60167118481903
201,Bang Khen,Baan Bangkhen (บ้านบางเขน),Thai Restaurant,13.863200295613685,100.5883594714686
202,Bang Khen,ก๋วยเตี๋ยวไก่แม่ศรีเรือน (Maesriruen),Noodle House,13.871962813727576,100.60168783192807
203,Bang Khen,7-Eleven (เซเว่น อีเลฟเว่น),Convenience Store,13.873756908777963,100.58049783333107
204,Bang Khen,อาเช้ง บะหมี่เกี๊ยว,Noodle House,13.88362458130289,100.60133889156685
205,Bang Khen,Chan Chai Lab Yasotorn (ชาญชัย ลาบยโสธร),Som Tum Restaurant,13.875564617752383,100.57913670627714
206,Bang Khen,สนามยิงปืนสโมสรตำรวจ,Gun Range,13.867204928358777,100.5809222619763
207,Bang Khen,McDonald's & McCafé (แมคโดนัลด์ & แมคคาเฟ่),Fast Food Restaurant,13.879828643196726,100.58986283219146
208,Bang Khen,Tesco Lotus (เทสโก้ โลตัส),Big Box Store,13.878751582032265,100.600724010969
209,Bang Khen,Café Amazon (คาเฟ่ อเมซอน),Coffee Shop,13.866973909699663,100.609454179133
210,Bang Khen,ป.กุ้งเผา หลักสี่,Seafood Restaurant,13.879017746593716,100.59136048160622
211,Bang Khen,Cafe' Amazon (คาเฟ่ อเมซอน),Coffee Shop,13.880414653966014,100.5901696733072
212,Bang Khen,ก๋วยเตี๋ยวลูกชิ้นหมูแม่ตุ๋ม (เจ๊ไนท์),Noodle House,13.871088503139784,100.59384275781318
213,Bang Khen,SF Cinema City (เอส เอฟ ซีเนม่า ซิตี้),Multiplex,13.872513859622183,100.60192483482584
214,Bang Khen,แหนมเนืองคุณนิด (อาหารเวียดนาม),Vietnamese Restaurant,13.874917428289688,100.5998488537858
215,Bang Khen,ลาบร้อยเอ็ด (อาหารอีสาน),Som Tum Restaurant,13.887508527197092,100.60371948216027
216,Bang Khen,Longdoux (ลองดู),Vietnamese Restaurant,13.873943704616401,100.58008086805593
217,Bang Khen,ก๋วยเตี๋ยวต้มยำ เย็นตาโฟรสเด็ด,Thai Restaurant,13.883286569979909,100.60127848129433
218,Bang Khen,THE OFFICE CAFE,Bar,13.883324564012629,100.58298435266452
219,Bang Khen,Louis' Tavern Hotel (โรงแรมหลุยส์ แทเวิร์น),Hotel,13.874012100392966,100.58216335113922
220,Bang Khen,7-Eleven (เซเว่น อีเลฟเว่น),Convenience Store,13.86970999264646,100.60439739929666
221,Bang Khen,Shabushi (ชาบูชิ),Shabu-Shabu Restaurant,13.879677626558202,100.59971761259612
222,Bang Khen,Ramen Ajisai,Ramen Restaurant,13.871974213884798,100.60168657535661
223,Bang Khen,Mcdonald’s @ Shell Ramintra,Burger Joint,13.871343,100.602924
224,Bang Khen,ลาบจ่าจ่อย,Som Tum Restaurant,13.883672718263794,100.58325334850002
225,Bang Khen,48Ville.,Hotel,13.884393168364948,100.6064638475082
226,Bang Khen,Café Amazon (คาเฟ่ อเมซอน),Coffee Shop,13.879231387087106,100.59969969029122
227,Bang Khen,Swensen's (สเวนเซ่นส์),Ice Cream Shop,13.879782768744965,100.5996602556588
228,Bang Khen,McDonald's (แมคโดนัลด์),Fast Food Restaurant,13.879304500014136,100.59989382993419
229,Bang Khen,Cafe' Amazon,Coffee Shop,13.887579019361576,100.60464135687991
230,Bang Khen,The hero cafe',Café,13.883670691783248,100.60661274790851
231,Bang Khen,Black Canyon (แบล็คแคนยอน),Restaurant,13.87177337684031,100.60157261393832
232,Bang Khen,Café Amazon (คาเฟ่ อเมซอน),Coffee Shop,13.886482811379846,100.58382909198461
233,Bang Khen,Tom & Jerry,Pub,13.880871955180815,100.59945124450276
234,Bang Khen,7-Eleven (เซเว่น อีเลฟเว่น),Convenience Store,13.879353016295202,100.59046175175094
235,Bang Khen,KFC (เคเอฟซี),Fast Food Restaurant,13.872037204058406,100.60171887843129
236,Bang Khen,Chester's Grill (เชสเตอร์ กริลล์),Fast Food Restaurant,13.879014952178082,100.60044064777894
237,Bang Khen,สเต็กลุงใหญ่ รามอินทรา 5,Steakhouse,13.870822890261302,100.60462813297744
238,Bang Khen,a. coffee,Coffee Shop,13.874865449023023,100.57857387636254
239,Bang Khen,Hot Pot Inter Buffet (ฮอท พอท อินเตอร์ บุฟเฟ่ต์),Hotpot Restaurant,13.87191276905995,100.60165224353236
240,Bang Khen,Shabu Shabu Nangnai (ชาบู ชาบู นางใน),Shabu-Shabu Restaurant,13.87041524966325,100.60580429430962
241,Bang Khen,Butsa Bong (บุษบงก์),Asian Restaurant,13.88837682993335,100.60418188340059
242,Bang Khen,บรรเจิดดดด,Beer Garden,13.866226147768662,100.59079885482788
243,Bang Khen,McDonald's,Fast Food Restaurant,13.881652227407251,100.6047307549764
244,Bang Khen,Food Court,Food Court,13.879113703984839,100.60052959553275
245,Bang Khen,KFC (เคเอฟซี),Fast Food Restaurant,13.879485697313894,100.59956452575744
246,Bang Khen,Ebina House Hotel,Hotel,13.875129018971595,100.57976825727539
247,Bang Khen,สวนอาหารบางบัว,Thai Restaurant,13.86259290443611,100.58821385153277
248,Bang Khen,ตลาดนัด วิภาวดี 64,Flea Market,13.875161434231002,100.57823005190664
249,Bang Khen,7-Eleven (เซเว่น อีเลฟเว่น),Convenience Store,13.886503944331661,100.58352333173357
250,Bang Khen,แอบแซ่บ,Som Tum Restaurant,13.87936873935523,100.61217484591599
251,Bang Khen,Lumpinee Boxing Stadium (สนามมวยเวทีลุมพินี),Stadium,13.866434471184162,100.60923099517822
252,Bang Khen,7-Eleven (เซเว่น อีเลฟเว่น),Convenience Store,13.889624308221778,100.60522149212879
253,Bang Khen,ต.เจริญชัย,Noodle House,13.889656935721362,100.60513381639234
254,Bang Khen,ตามสั่งอินดี้,Restaurant,13.867852484686951,100.59089104780918
255,Bang Khen,สมาคมกอล์ฟอาชีพแห่งประเทศไทย,Sports Club,13.867975792362802,100.60402156339545
256,Bang Khen,สระว่ายน้ำ สนามกอล์ฟ ทบ.,Pool,13.867777129934861,100.60448678271482
257,Bang Khen,CPF Day ราบ11,Flea Market,13.864653437840126,100.59175176142469
258,Bang Khen,Lawyers Council Under the Royal Patronage (สภาทนายความ ในพระบรมราชูปถัมภ์),Social Club,13.880990281321662,100.59841872082924
259,Bang Khen,ส้มตำริมน้ำ รามอินทรา5,Restaurant,13.870674,100.608476
260,Bang Khen,Ting Tai Fu (ติ่ง ไท้ ฝู (Ting Tai Fu)),Chinese Restaurant,13.88939217845793,100.60487995492159
261,Bang Khen,อ. กมลภัทรา. SCG,Home Service,13.868244,100.608129
262,Bang Khen,7-Eleven (เซเว่น อีเลฟเว่น),Convenience Store,13.881091597050133,100.60920593427987
263,Bang Khen,ป้ายรถเมย์หน้าราบ11 ประตู3,Bus Stop,13.860104844600873,100.58750709613625
264,Bang Khen,"ตักบาตร 12,600 รูป ตลาดยิ่งเจริญ สะพะานใหม่",Garden Center,13.889113943801828,100.6047362526068
265,Bang Kho Laem,เย็นตาโฟ (วัดจันทร์ใน),Noodle House,13.694611769263346,100.50443534761457
266,Bang Kho Laem,Pad Thai Shop (ร้านผัดไทย),Noodle House,13.693819,100.50493
267,Bang Kho Laem,Sanyod Seafood (แสนยอด ซีฟู้ด),Seafood Restaurant,13.6890335,100.50158
268,Bang Kho Laem,ห้องอาหารจันทร์เพ็ญ,Thai Restaurant,13.692355113057904,100.5042336781303
269,Bang Kho Laem,Baan Klang Krung (บ้านกลางกรุง),Thai Restaurant,13.690974203966611,100.50315138552452
270,Bang Kho Laem,Starbucks (สตาร์บัคส์),Coffee Shop,13.690738914588312,100.50413072173575
271,Bang Kho Laem,Samed Island (เกาะเสม็ด),Pub,13.684950714905698,100.50027995797315
272,Bang Kho Laem,Bann Klang Nam Restaurant (ร้านอาหารบ้านกลางน้ำ),Seafood Restaurant,13.688055142636383,100.50222673998371
273,Bang Kho Laem,Asiatique The Riverfront (เอเชียทีค เดอะ ริเวอร์ฟร้อนท์),Shopping Plaza,13.704008306831394,100.50362984873885
274,Bang Kho Laem,เรือนหยก สุกี้โบราณ,Hotpot Restaurant,13.682050924591906,100.50191803942234
275,Bang Kho Laem,โต๋วโภชนา เป็ดพะโล้,Chinese Restaurant,13.681992815846032,100.49897643261512
276,Bang Kho Laem,ช้างเย็นตาโฟ,Noodle House,13.699620902566773,100.49940247132157
277,Bang Kho Laem,The View (เดอะวิว),Restaurant,13.693531366421375,100.49175609677714
278,Bang Kho Laem,Asiatique Sky (เอเชียทีค สกาย),Theme Park Ride / Attraction,13.70516992828511,100.50330610495108
279,Bang Kho Laem,Charoenkrung District (ย่านเจริญกรุง),Plaza,13.703981088216977,100.50397189769708
280,Bang Kho Laem,Au Bon Pain (โอ บอง แปง),Café,13.70377172903134,100.5040198470681
281,Bang Kho Laem,HOBS The Riverfeast,Beer Garden,13.68659184322446,100.51373937497097
282,Bang Kho Laem,หมูตกครก Bistro & Bar,Bistro,13.681054174029214,100.50711977648876
283,Bang Kho Laem,Swensen's (สเวนเซ่นส์),Ice Cream Shop,13.704315738428257,100.50404973589887
284,Bang Kho Laem,Muay Thai Live (มวยไทยไลฟ์),Performing Arts Venue,13.704423652291814,100.50362749522398
285,Bang Kho Laem,Checkmate Bar & Bistro (เช็คเมท บาร์ แอนด์ บิสโทร),Bar,13.70454097337914,100.50186890267219
286,Bang Kho Laem,Bake a Wish,Bakery,13.68125213101949,100.4947410047961
287,Bang Kho Laem,Yin Yang Original Massage and Spa,Massage Studio,13.706424396217828,100.5070374440704
288,Bang Kho Laem,Anantara Bangkok Riverside Spa & Resort (โรงแรมอนันตรา กรุงเทพฯ ริเวอร์ไซด์ รีสอร์ท แอนด์ สปา),Hotel,13.704340337934475,100.49188409109108
289,Bang Kho Laem,Bar B Q Plaza (บาร์บีคิว พลาซ่า),BBQ Joint,13.683005463472524,100.49984521600086
290,Bang Kho Laem,Pattra Sport Club (ภัทราสปอร์ตคลับ),Sports Club,13.698320015115112,100.50865927799077
291,Bang Kho Laem,Butcher Beef & Beer,BBQ Joint,13.698790907958914,100.51455979462632
292,Bang Kho Laem,AVANI+ Riverside Bangkok Hotel (อวานี พลัส ริเวอร์ไซด์ กรุงเทพฯ),Hotel,13.704950425982187,100.49142472911906
293,Bang Kho Laem,Baan Khanitha by the River (บ้านขนิษฐา),Thai Restaurant,13.704732720575711,100.50184729033445
294,Bang Kho Laem,Sa-Ma-Dul (สมดุลย์),Spa,13.703941493607337,100.50367228378691
295,Bang Kho Laem,ก๋วยเตี๋ยวเนื้อวัว เครื่องในวัวตุ๋นน้ำแดงรสเด็ด (เจ้าเก่า),Noodle House,13.679749112745858,100.50324905110968
296,Bang Kho Laem,Loving Hut,Vegetarian / Vegan Restaurant,13.688922014895796,100.5126834935128
297,Bang Kho Laem,พ่อครัวเถื่อน ยอดนักตุ๋น,Thai Restaurant,13.704246473816973,100.50581674823405
298,Bang Kho Laem,ตวง ติ่มซำ,Dim Sum Restaurant,13.708295,100.509544
299,Bang Kho Laem,Akiyoshi (อะคิโยชิ) 秋吉,Shabu-Shabu Restaurant,13.703859112336106,100.50243179223645
300,Bang Kho Laem,Chaaloem Phrakiat Park (สวนสาธารณะเฉลิมพระเกียรติ 6 รอบ),Park,13.685723688067712,100.51852425355858
301,Bang Kho Laem,Ah Yat Abalone Forum Restaurant (อายัท อบาโลน ฟอรั่ม เรสตัวรองท์),Dim Sum Restaurant,13.707884920734285,100.50572563427139
302,Bang Kho Laem,Hotel Once Bangkok,Hotel,13.70712689619247,100.50718043209764
303,Bang Kho Laem,Happy Fish (แฮปปีฟิช),Steakhouse,13.70509961407573,100.5022371832857
304,Bang Kho Laem,เรือนหยก สุกี้โบราณ,Chinese Restaurant,13.678878295635844,100.4958315178292
305,Bang Kho Laem,Kieak Shark Fin Cuisine Charoenrat (เกี๊ยกหูฉลาม เจริญราษฎร์),Chinese Restaurant,13.697491524745722,100.5142681693935
306,Bang Kho Laem,The Wave Restaurant (ราษฎร์บูรณะ),Pub,13.685066142364741,100.49984187255268
307,Bang Kho Laem,Attitude,Hotel Bar,13.705305,100.490829
308,Bang Kho Laem,Gelato Fresco (เจลาโต้ เฟรสโก้),Ice Cream Shop,13.703563278938653,100.50341894891615
309,Bang Kho Laem,Montien Riverside Hotel (โรงแรมมณเฑียร ริเวอร์ไซด์),Hotel,13.68848178083558,100.50786976175873
310,Bang Kho Laem,Starbucks (สตาร์บัคส์),Coffee Shop,13.705511989537822,100.49072323656003
311,Bang Kho Laem,จิรวัฒน์ ภัตตา,Chinese Restaurant,13.682202440436582,100.50237881365037
312,Bang Kho Laem,Wat Bukkalo (วัดบุคคโล),Buddhist Temple,13.699753962529348,100.48940113700165
313,Bang Kho Laem,7-Eleven (เซเว่นอีเลฟเว่น),Convenience Store,13.702222953337825,100.5128336423375
314,Bang Kho Laem,Brick Bistro Restaurant,Bistro,13.704208766694945,100.50257321492867
315,Bang Kho Laem,Kurissara (กุลิสรา),Thai Restaurant,13.70903471832747,100.5104398727417
316,Bang Kho Laem,7-Eleven (เซเว่น อีเลฟเว่น),Convenience Store,13.681024886321948,100.49391662680982
317,Bang Kho Laem,Chic Grill,Seafood Restaurant,13.704643841406531,100.50297673685365
318,Bang Kho Laem,Mango Tango,Dessert Shop,13.70334374058608,100.50306147091003
319,Bang Kho Laem,Benihana (เบนนิฮานา),Japanese Restaurant,13.704088716359498,100.49179571212332
320,Bang Kho Laem,ราดหน้า40ปี,Thai Restaurant,13.681331181107119,100.50374802363484
321,Bang Kho Laem,ก๋วยเตี๋ยวเรือทอง,Noodle House,13.70001988533025,100.51124118968272
322,Bang Kho Laem,ก๋วยเตี๋ยวมวล บางปะแก้ว,Noodle House,13.68510043590149,100.48977727826983
323,Bang Kho Laem,ข้าวหมูแดง บางปะกอก (แพนด้า),Thai Restaurant,13.677853512030959,100.49889491083292
324,Bang Kho Laem,Top Knot by Hotel Once,Hotel Bar,13.707159555003322,100.5070482386667
325,Bang Kho Laem,Sathu Pier Pot Roast (เนื้อตุ๋นท่าน้ำสาธุฯ),Noodle House,13.70485797111755,100.48999063532388
326,Bang Kho Laem,Shabu Shabu Nangnai (ชาบู ชาบู นางใน),Asian Restaurant,13.696335545217588,100.51332030030252
327,Bang Kho Laem,ร้านเชิญชิมลูกชิ้นปลา,Noodle House,13.693565692586194,100.51344506744167
328,Bang Kho Laem,ตลาดสดบ้านใหม่ เจริญกรุง 85,Farmers Market,13.705767313568858,100.50940718421376
329,Bang Kho Laem,โจ๊กสยาม บางปะกอก,Breakfast Spot,13.677755579368666,100.49913064564608
330,Bang Kho Laem,SORTREL's Cottage (ซอร์เทรล คอทเทจ),Pub,13.68584982126064,100.51845066243277
331,Bang Kho Laem,Fire & Dine,Bar,13.704074340556277,100.50229148525767
332,Bang Kho Laem,ราดหน้ายอดอร่อย สูตร 60 ปี,Thai Restaurant,13.684605917129803,100.49553011149648
333,Bang Kho Laem,โชคดี,Asian Restaurant,13.71075,100.49848
334,Bang Kho Laem,Café Amazon,Coffee Shop,13.696306184321674,100.51345064395647
335,Bang Kho Laem,Starbucks (สตาร์บัคส์),Coffee Shop,13.687139485699959,100.51890060486143
336,Bang Kho Laem,Sweety Mellow Bar,Pub,13.69848950520102,100.51431497671877
337,Bang Kho Laem,Best Western Plus Grand Howard Hotel,Hotel,13.701902483949736,100.51603913934508
338,Bang Kho Laem,Riverside Plaza (ริเวอร์ไซด์ พลาซ่า),Shopping Mall,13.705506798507338,100.49067779387487
339,Bang Kho Laem,R Ou Bangrak Restaurant (อาอู๋บางรัก),Chinese Restaurant,13.706090063075266,100.50689314964445
340,Bang Kho Laem,ข้าวสวยแกงร้อน,Thai Restaurant,13.68693341651901,100.4926965910355
341,Bang Kho Laem,Café Amazon (คาเฟ่ อเมซอน),Coffee Shop,13.705701272289044,100.5067576144928
342,Bang Kho Laem,7-Eleven (เซเว่นอีเลฟเว่น),Convenience Store,13.697120943095655,100.5103959830814
343,Bang Kho Laem,Sizzler (ซิซซ์เลอร์),Steakhouse,13.705336743819228,100.49047562734948
344,Bang Kho Laem,HomePro (โฮมโปร),Furniture / Home Store,13.687119843910752,100.51907747045227
345,Bang Kho Laem,Soccer Pro,Soccer Stadium,13.70140978532833,100.51425793154411
346,Bang Kho Laem,Boon-Yong (บุญยงค์),Thai Restaurant,13.706734759396792,100.50759740010412
347,Bang Kho Laem,MK (เอ็มเค),Hotpot Restaurant,13.68295915414418,100.49251955912605
348,Bang Kho Laem,มวลหมูจุ่ม ทะเลจุ่ม หมูกะทะ หมี่หยก ซีฟู้ดทะเลเผา,Thai Restaurant,13.700141050038361,100.51526381995943
349,Bang Kho Laem,Café Amazon (คาเฟ่ อเมซอน),Coffee Shop,13.682828048707965,100.49897324897975
350,Bang Kho Laem,เช็งซิมอี้ (ลือลั่นสะท้านโลกันต์),Dessert Shop,13.710272596463907,100.49744148926659
351,Bang Kho Laem,Baan Suan Massage (บ้านสวนมาสสาจ),Massage Studio,13.709505154764296,100.49649084858751
352,Bang Kho Laem,ก๋วยเตี๋ยวเป็ดแต้จิ๋ว,Noodle House,13.693712670468116,100.50819060869254
353,Bang Kho Laem,Champ Badminton Court,Badminton Court,13.699483616523425,100.51549129284719
354,Bang Kho Laem,Inthanin Coffee,Coffee Shop,13.688152745306882,100.51715434685175
355,Bang Kho Laem,เจียงลูกชิ้นปลา,Noodle House,13.703077903714403,100.51665889238917
356,Bang Kho Laem,The Coffee Club (เดอะ คอฟฟี่ คลับ),Café,13.70553472511296,100.49060458119834
357,Bang Kho Laem,อู่ข้าวอู่น้ำ หมูกะทะ,BBQ Joint,13.677465977939121,100.50266365911558
358,Bang Kho Laem,KaySorn Restaurant (เกสรภัตตาคาร),Thai Restaurant,13.69428872657725,100.51202067258312
359,Bang Kho Laem,Café Amazon (คาเฟ่ อเมซอน),Coffee Shop,13.677113431568364,100.50114094775027
360,Bang Kho Laem,"Kama Bangkok- Bed, Breakfast, Restaurant & Bar",Bed & Breakfast,13.702799205773685,100.5138228080894
361,Bang Kho Laem,Kabocha Sushi,Sushi Restaurant,13.687100886459957,100.51896074182586
362,Bang Kho Laem,7-Eleven (เซเว่น อีเลฟเว่น),Convenience Store,13.699570270783104,100.51146984100342
363,Bang Kho Laem,The 20 Bar Pub and Restaurant,Bar,13.699396627291758,100.5150406954375
364,Bang Kho Laem,Earw Thai Chinese Restaurant (ภัตตาคารเอี่ยวไถ่),Chinese Restaurant,13.68803529182547,100.50188353965244
365,Bang Khun Thian,ขนมจีนเทวดา บีบเส้นสดๆ,Noodle House,13.659427894389015,100.43369221781151
366,Bang Khun Thian,ไผ่ทองโภชนา,Thai Restaurant,13.66210099667587,100.43526423921672
367,Bang Khun Thian,UNIQLO (ยูนิโคล่),Clothing Store,13.663285319260842,100.43944994391587
368,Bang Khun Thian,Starbucks Reserve (สตาร์บัคส์),Coffee Shop,13.663825128156747,100.43766759688408
369,Bang Khun Thian,Amor (อะมอร์),Bakery,13.663394515370044,100.43732248281691
370,Bang Khun Thian,BonChon Chicken (บอนชอน ชิคเก้น),Fried Chicken Joint,13.663334469560315,100.4371627703932
371,Bang Khun Thian,Tops Market (ท็อปส์ มาร์เก็ต),Supermarket,13.662780708486233,100.43740986726459
372,Bang Khun Thian,Hua Seng Hong (ฮั่วเซ่งฮง),Chinese Restaurant,13.663309440749263,100.43728662462351
373,Bang Khun Thian,Bar B Q Plaza (บาร์บีคิว พลาซ่า),BBQ Joint,13.664320796007852,100.43851631163739
374,Bang Khun Thian,Central Park,Park,13.665003707975314,100.4365472677208
375,Bang Khun Thian,MK (เอ็มเค),Hotpot Restaurant,13.664319596567958,100.43846640982532
376,Bang Khun Thian,CentralPlaza Rama 2 (เซ็นทรัลพลาซา พระราม 2),Shopping Mall,13.663832487349657,100.43804538170352
377,Bang Khun Thian,Black Canyon Coffee (แบล็คแคนยอนคอฟฟี่),Restaurant,13.660985935256084,100.43408170508575
378,Bang Khun Thian,The Park by น้องเนย ซีฟู้ด,Seafood Restaurant,13.665490791264048,100.43576365691767
379,Bang Khun Thian,Starbucks (สตาร์บัคส์),Coffee Shop,13.664258082594282,100.43908176805752
380,Bang Khun Thian,The Pizza Company (เดอะ พิซซ่า คอมปะนี),Pizza Place,13.664203827531676,100.43739239669576
381,Bang Khun Thian,Swensen's,Ice Cream Shop,13.662355301917303,100.44026717948795
382,Bang Khun Thian,Central Department Store (ห้างสรรพสินค้าเซ็นทรัล),Department Store,13.663220942480992,100.43772709901111
383,Bang Khun Thian,Jiang Fish Ball (เจียงลูกชิ้นปลา),Noodle House,13.664075057121941,100.43772619024207
384,Bang Khun Thian,Sizzler (ซิซซ์เล่อร์),Steakhouse,13.66427470466361,100.43905186602943
385,Bang Khun Thian,ตลาดวิบูลย์วิทย์,Market,13.6636247486421,100.44045481461404
386,Bang Khun Thian,Fuji (ฟูจิ),Japanese Restaurant,13.664001785073967,100.4377598487043
387,Bang Khun Thian,Index Living Mall Rama 2 (อินเด็กซ์ ลิฟวิ่ง มอลล์ พระราม 2),Furniture / Home Store,13.66565580526356,100.44379898897886
388,Bang Khun Thian,The Terrace (เดอะ เทอเรส),Restaurant,13.662268123368783,100.43743580069412
389,Bang Khun Thian,ส้มตำครกเงิน,Som Tum Restaurant,13.66602305263664,100.43275542208039
390,Bang Khun Thian,Squeeze by Tipco (สควีซ),Juice Bar,13.664055254280951,100.43757206449253
391,Bang Khun Thian,Gateaux House (กาโตว์ เฮ้าส์),Bakery,13.663480875170578,100.43739316489084
392,Bang Khun Thian,Mister Donut (มิสเตอร์ โดนัท),Donut Shop,13.66425185345577,100.43903342094632
393,Bang Khun Thian,Starbucks (สตาร์บัคส์),Coffee Shop,13.66560744035736,100.44416445800691
394,Bang Khun Thian,Swensen's (สเวนเซ่นส์),Ice Cream Shop,13.664300852421562,100.4389152613467
395,Bang Khun Thian,HomePro (โฮมโปร),Furniture / Home Store,13.662829035278396,100.44290103138785
396,Bang Khun Thian,Green Day Night Market Rama 2 (ตลาดกรีนเดย์ไนท์ พระราม 2),Night Market,13.66460119171586,100.4412536804172
397,Bang Khun Thian,Cafe' Amazon บางขุนเทียนชายทะเล,Coffee Shop,13.65058748169224,100.43135387773158
398,Bang Khun Thian,โรงเหล้าแสงจันทร์,Bar,13.65704969362743,100.42933931475886
399,Bang Khun Thian,ก๋วยเตี๋ยวตำลึง นายเอก,Noodle House,13.667102147212471,100.42835394702874
400,Bang Khun Thian,McDonald's & McCafé (แมคโดนัลด์ & แมคคาเฟ่),Fast Food Restaurant,13.663228733863624,100.44141495086133
401,Bang Khun Thian,CoCoICHIBANYA (โคโค่อิฉิบันยะ),Japanese Curry Restaurant,13.664190269079102,100.43912405279656
402,Bang Khun Thian,ครัวชาวใต้,Thai Restaurant,13.661324895258407,100.43442902998439
403,Bang Khun Thian,Farm Design (ฟาร์มดีไซน์),Dessert Shop,13.66409480858745,100.43785068720827
404,Bang Khun Thian,Pepper Lunch (เปปเปอร์ ลันช์),Japanese Restaurant,13.66404681222243,100.43767037634645
405,Bang Khun Thian,Holland Beer (โรงเบียร์ฮอลแลนด์),Brewery,13.664117,100.44100100000003
406,Bang Khun Thian,Black Canyon (แบล็คแคนยอน),Café,13.664128025691744,100.43787938882542
407,Bang Khun Thian,เกาเหลาเลือดหมู เจ๊หมาย (หมูหลบแดด),Restaurant,13.667974162305207,100.4513636134519
408,Bang Khun Thian,Starbucks (สตาร์บัคส์),Coffee Shop,13.669379482042736,100.45166304208668
409,Bang Khun Thian,ลาบชัยภูมิ,Thai Restaurant,13.662052199812232,100.4425587188899
410,Bang Khun Thian,Swensen's (สเวนเซ่นส์),Ice Cream Shop,13.664028334825787,100.43754472185445
411,Bang Khun Thian,ลูกชิ้นปลานายใบ้ สาขาบางบอน,Asian Restaurant,13.661306758302253,100.42943648592187
412,Bang Khun Thian,SC badminton court,Badminton Court,13.669979896008979,100.44941648747042
413,Bang Khun Thian,iStudio,Electronics Store,13.664275185698347,100.4385352432303
414,Bang Khun Thian,ลิขิต ข้าวมันไก่ บางบอน,Thai Restaurant,13.676970072542519,100.43118790252687
415,Bang Khun Thian,ร้านนายอินทร์ (Naiin),Bookstore,13.663590294379823,100.43742644320659
416,Bang Khun Thian,Kabocha Sushi,Sushi Restaurant,13.668906377595608,100.45229260395347
417,Bang Khun Thian,Burger King (เบอร์เกอร์ คิง),Fast Food Restaurant,13.669395744016592,100.45154352548985
418,Bang Khun Thian,ยกทะเล ซีฟู๊ดบุฟเฟ่ต์,Seafood Restaurant,13.649511370491474,100.44567162859865
419,Bang Khun Thian,Dream Chill&Louge outdoor,Lounge,13.652578379389242,100.44333354419342
420,Bang Khun Thian,นพรัตน์ สปอร์ตคลับ,Pool,13.674304765144223,100.43086214172614
421,Bang Khun Thian,บ้านพลอย ชาบู ชาบู,Hotpot Restaurant,13.650001588758206,100.42942448528134
422,Bang Khun Thian,Shabushi (ชาบูชิ),Shabu-Shabu Restaurant,13.66339016482558,100.43735089879762
423,Bang Khun Thian,INDEX Living Mall Head Office,Coworking Space,13.670947909876228,100.44510191927534
424,Bang Khun Thian,แอมเฮือง,Vietnamese Restaurant,13.67765114569702,100.43246348074078
425,Bang Khun Thian,เตี๋ยวแถวบ้าน,Noodle House,13.67545137435702,100.43645566517372
426,Bang Khun Thian,ลุงแดง ซีฟู้ด,Seafood Restaurant,13.657885736207016,100.44246690941269
427,Bang Khun Thian,เกาเหลาตี๋อ้วน,Soup Place,13.674989818998807,100.4276453347785
428,Bang Khun Thian,ไทวัสดุ พระราม 2,Construction & Landscaping,13.652278815062814,100.42330809480592
429,Bang Khun Thian,Maruai Market (ตลาดมารวย),Market,13.64927198325328,100.44373935130285
430,Bang Khun Thian,ม่วงศิริเบเกอรี่,Bakery,13.67526142624729,100.42827282300331
431,Bang Khun Thian,The Bright (เดอะ‎ ไบร์ท‬),Shopping Mall,13.668853325652766,100.45231774949367
432,Bang Khun Thian,MK (เอ็มเค),Hotpot Restaurant,13.662262301628338,100.44033947206786
433,Bang Khun Thian,Yayoi (ยาโยอิ),Japanese Restaurant,13.662303598045508,100.44040638696431
434,Bang Khun Thian,ศาลเจ้าแม่กวนอิม บางขุนเทียน,Shrine,13.644853634330211,100.4315388903151
435,Bang Khun Thian,กาเเฟรสโบราณเอกชัย69,Coffee Shop,13.677458605103539,100.43492845436765
436,Bang Khun Thian,Wine Connection,Wine Shop,13.668932322777083,100.45237150899489
437,Bang Khun Thian,ก๋วยเตี๋ยวเปรี้ยวปาก,Noodle House,13.652275489157537,100.44395060242066
438,Bang Khun Thian,MK (เอ็มเค),Hotpot Restaurant,13.678678121259752,100.43647277129527
439,Bang Khun Thian,ขนมจีนเทวดา,Thai Restaurant,13.663454158585795,100.44248055305961
440,Bang Khun Thian,Inthanin (อินทนิล),Coffee Shop,13.662804103011089,100.44094766674998
441,Bang Khun Thian,Gassan Par 3 Driving Range,Golf Driving Range,13.653642202996906,100.44416430873397
442,Bang Khun Thian,Ekachai Market (ตลาดสดเอกชัย),Flea Market,13.67517747609624,100.42607213538842
443,Bang Khun Thian,ตลาดรวยยิ่งรวย,Flea Market,13.653445658007417,100.4481249663437
444,Bang Khun Thian,Big C (บิ๊กซี),Department Store,13.660761822272905,100.44168570394956
445,Bang Khun Thian,อิ่มเอิบแหนมเนือง,Vietnamese Restaurant,13.651666985105898,100.44352928548241
446,Bang Khun Thian,Lotus Express Rama II Soi 50,Department Store,13.668214894512914,100.44287698715291
447,Bang Khun Thian,Hya Tai Kee (โกปี๊ เฮี้ยะไถ่กี่),Café,13.668945910153829,100.45230479890725
448,Bang Khun Thian,ก ก่ายย่าง พระราม 2,Thai Restaurant,13.664904648028916,100.44431344248586
449,Bang Khun Thian,7-Eleven (เซเว่น อีเลฟเว่น),Convenience Store,13.671738433823052,100.43879719179948
450,Bang Khun Thian,MaxValu (แม็กซ์แวลู),Supermarket,13.672745313859313,100.42605567463325
451,Bang Khun Thian,Thonburi Fitness2,Gym / Fitness Center,13.671251671341059,100.42680507521888
452,Bang Khun Thian,7-Eleven (เซเว่น อีเลฟเว่น),Convenience Store,13.64571968466049,100.4381935481647
453,Bang Khun Thian,B-quik,Auto Garage,13.673322999489333,100.42580190507616
454,Bang Khun Thian,ก๋วยเตี๋ยวเป็ด สามแยกบางบอน,Noodle House,13.675024751663528,100.42777748582283
455,Bang Khun Thian,ก๋วยเตี๋ยวลูกชิ้นแคะ เจ้โหนก (สาขาใหม่),Noodle House,13.66756611703446,100.45228144003357
456,Bang Khun Thian,แยกตลาดบางบอน เอกชัย,Flea Market,13.675035031208383,100.42657693332983
457,Bang Khun Thian,kasa,Sushi Restaurant,13.66897915693927,100.45220150273462
458,Bang Khun Thian,บะหมี่ฮ่องเต้,Noodle House,13.67833674054198,100.43370119361305
459,Bang Na,ก๋วยเตี๋ยวฉั่ง (Mr.Chang) (ก๋วยเตี๋ยวฉั่ง),Noodle House,13.675752766332304,100.5908135730222
460,Bang Na,Bangkok Tree House,Hotel,13.680335517586602,100.5851590301272
461,Bang Na,ข้าวมันไก่โชคชัย,Asian Restaurant,13.676315368821676,100.58989902369723
462,Bang Na,กาญจนา | ต้มเลือดหมู,Asian Restaurant,13.675972114509952,100.59132457087311
463,Bang Na,Burger King (เบอร์เกอร์ คิง),Fast Food Restaurant,13.686060750138356,100.6028866064342
464,Bang Na,Little Park Food Court (ศูนย์อาหารลิตเติ้ลปาร์ค),Food Court,13.686593079791184,100.60321474849862
465,Bang Na,Burger King (เบอร์เกอร์ คิง),Fast Food Restaurant,13.687423376626203,100.60147483454148
466,Bang Na,Hongkong Noodle (ฮ่องกง นู้ดเดิ้ล),Dumpling Restaurant,13.686020363477297,100.60159844838078
467,Bang Na,ครัวต้นหอม,Thai Restaurant,13.67481819959474,100.59676184368807
468,Bang Na,Ogoptician,Optical Shop,13.680290039772846,100.60808839837955
469,Bang Na,The 66 Cottage (เดอะ ซิกซ์ตี้ซิกซ์ คอทเทจ),Café,13.682414906001148,100.60902795686864
470,Bang Na,พบรัก ณ บางน้ำผึ้ง,Thai Restaurant,13.679937009305128,100.58518586920198
471,Bang Na,7-Eleven (เซเว่น อีเลฟเว่น),Convenience Store,13.68574719864621,100.60336869748532
472,Bang Na,Bangnamphung Floating Market (ตลาดน้ำบางน้ำผึ้ง),Floating Market,13.680723628165806,100.57519912719727
473,Bang Na,7-Eleven (เซเว่น อีเลฟเว่น),Convenience Store,13.687068551894054,100.60152275660833
474,Bang Na,Coffee Toys,Coffee Shop,13.678972326775401,100.57626921566278
475,Bang Na,Shabu Street,Shabu-Shabu Restaurant,13.6793630444475,100.60988722433878
476,Bang Na,เต็งใช้ฮวด,Noodle House,13.69249093526336,100.60251411669613
477,Bang Na,ผัดไทรสเด็ด เจ้าเก่าบางจาก,Thai Restaurant,13.688512394511985,100.60705839478263
478,Bang Na,Prinze Melon (ปริ๊นซ์ เมล่อน),Café,13.681458976811715,100.57529110181227
479,Bang Na,สรรพกิจ,Supermarket,13.676495057012358,100.58863166012816
480,Bang Na,Café Amazon (คาเฟ่ อเมซอน),Coffee Shop,13.685948928061599,100.6034734906037
481,Bang Na,Naphalai Village (หมู่บ้านนภาลัย),Housing Development,13.669365452150942,100.59868999031863
482,Bang Na,Flint,Australian Restaurant,13.671083,100.605612
483,Bang Na,เพลินพอดี,Thai Restaurant,13.675760135136326,100.60350038152943
484,Bang Na,LAWSON 108 (ลอว์สัน 108),Convenience Store,13.679911931280223,100.60956411961432
485,Bang Na,Silawat Seafood (ศิลวัฒน์ ซีฟู๊ด),Seafood Restaurant,13.67608888853586,100.59112096689694
486,Bang Na,Udomsuk Tomyum Noodle (ก๋วยเตี๋ยวต้มยำ อุดมสุข),Noodle House,13.678789891237475,100.60980995604992
487,Bang Na,BTS Bang Na (E13) (BTS บางนา),Train Station,13.668318876004411,100.60478375217036
488,Bang Na,เฮียแก้ว ก๋วยเตี๋ยวหมูตุ๋นเนื้อตุ๋น อุดมสุข,Noodle House,13.678928415895815,100.60922438336797
489,Bang Na,Black Canyon (แบล็คแคนยอน),Restaurant,13.686551023757461,100.60148939800517
490,Bang Na,Tsuruha (ซูรูฮะ),Pharmacy,13.679639167763058,100.60970634410943
491,Bang Na,MaxValu Tanjai (แม็กซ์แวลู ทันใจ),Grocery Store,13.671080487034619,100.60562406891229
492,Bang Na,McDonald's (แมคโดนัลด์),Fast Food Restaurant,13.67105548518378,100.60569567696544
493,Bang Na,วันวานที่บางนา,Café,13.676499826989176,100.58912310134158
494,Bang Na,7-Eleven (7-11 สุขุมวิท66/1 (ยัสปาล)),Convenience Store,13.68188,100.60145
495,Bang Na,Yayoi (ยาโยอิ),Japanese Restaurant,13.671050869237135,100.60570489578394
496,Bang Na,BTS Udom Suk (E12) (BTS อุดมสุข),Train Station,13.679869692917112,100.6094865237974
497,Bang Na,S&P (เอส แอนด์ พี),Bakery,13.685618639707634,100.60327600891624
498,Bang Na,Park 2 Bar (ปาร์คทูบาร์),Bar,13.682129872655938,100.60881623295079
499,Bang Na,Meating Steak,Italian Restaurant,13.679221390973122,100.60999731668623
500,Bang Na,7-Eleven (เซเว่น อีเลฟเว่น),Convenience Store,13.680112786652682,100.60965948465244
501,Bang Na,7-Eleven (เซเว่น อีเลฟเว่น),Convenience Store,13.687727449949344,100.6073990634592
502,Bang Na,Café Amazon (คาเฟ่ อเมซอน),Coffee Shop,13.686436662052559,100.60157620916395
503,Bang Na,Bantonpeep (ร้านอาหารบ้านต้นปีบ),Thai Restaurant,13.692484544674949,100.60513758050921
504,Bang Na,ก๋วยเตี๋ยวโบราณท่าเรือบางนา,Noodle House,13.676646234944409,100.58812856876965
505,Bang Na,Coffee World (คอฟฟี่เวิลด์),Coffee Shop,13.67103826131733,100.6056462108467
506,Bang Na,7-Eleven (เซเว่น อีเลฟเว่น),Convenience Store,13.67319476176078,100.60588982510903
507,Bang Na,Bang Na Intersection Market (ตลาดแยกบางนา),Farmers Market,13.672725491879874,100.60570384064948
508,Bang Na,จ.จันทร์ฟอง,Noodle House,13.676346161429532,100.589372163937
509,Bang Na,MK (เอ็มเค),Hotpot Restaurant,13.671162692070615,100.60578587073456
510,Bang Na,Brighton Suite,Bed & Breakfast,13.673803420177252,100.60376738956836
511,Bang Na,PTT Life Station - Outbound (จุดพักรถทางพิเศษเฉลิมมหานคร - ขาออก),Gas Station,13.685916627715685,100.60319675155377
512,Bang Na,Noodles of Siam (ก๋วยเตี๋ยวเรือนัว),Noodle House,13.680329870369235,100.60979093913119
513,Bang Na,Black Canyon (แบล็คแคนยอน),Restaurant,13.686421647992628,100.60331088090368
514,Bang Na,Chester's Grill (เชสเตอร์),Fast Food Restaurant,13.686651815057704,100.60167396492432
515,Bang Na,PTT Life Station - Inbound (จุดพักรถทางพิเศษเฉลิมมหานคร - ขาเข้า),Gas Station,13.686536452432328,100.60175658485909
516,Bang Na,MaxValu Tanjai (แม็กซ์แวลู ทันใจ),Convenience Store,13.680883683607288,100.61004688718886
517,Bang Na,Inthanin Coffee@Bangchak#18,Coffee Shop,13.683602761275438,100.59116808198351
518,Bang Na,เรือนนมสด บางน้ำผึ้ง,Café,13.680534104590002,100.57383537975736
519,Bang Na,Sanpawut Junction (แยกสรรพาวุธ),Intersection,13.676043971943903,100.59131201383033
520,Bang Na,กิตติวัฒน์ หัวปลาหม้อไฟ,Thai Restaurant,13.67622889815258,100.59044752233761
521,Bang Na,Chester's Grill (เชสเตอร์ กริลล์),Fast Food Restaurant,13.686367451669266,100.60337537247905
522,Bang Na,Fattory (แฟ็ทโทรี่),Bistro,13.682338028205717,100.60886660235047
523,Bang Na,Weekend Market (ตลาดนัดแฟลตทหารเรือ),Flea Market,13.66641175063788,100.58882198258766
524,Bang Na,Baan Makham,Café,13.678623,100.583145
525,Bang Na,Bangna Residence,Residential Building (Apartment / Condo),13.675052661495595,100.59916734695435
526,Bang Na,สุกี้เมาเวอร์ริค,Noodle House,13.678757116507596,100.6094928537496
527,Bang Na,เย็นตาโฟเครื่องทรง,Thai Restaurant,13.68633067402888,100.60345665743547
528,Bang Na,One Udomsuk (วันอุดมสุข),Shopping Plaza,13.67966112231773,100.60967800574011
529,Bang Na,ข้าวต้มหัวปลาฝาแฝดชุมพร,Coffee Shop,13.674377002454943,100.60017919404861
530,Bang Na,TrueCoffee (ทรูคอฟฟี่),Coffee Shop,13.68092982184794,100.61006197988269
531,Bang Na,Attawit Commercial Technology College Band.,Music Venue,13.67494214049912,100.6019784009895
532,Bang Na,ครัวมัลลิการ์,Noodle House,13.686105141096935,100.6034608111131
533,Bang Na,TumYen (ตำเย็น),Som Tum Restaurant,13.679234900957495,100.60996412578162
534,Bang Na,The Coast Village,Shopping Mall,13.671211120982047,100.60574716382425
535,Bang Na,ผัดไท 30 หอยทอด 33 @ บางนา,Food Truck,13.673418,100.605335
536,Bang Na,Freshhour auto cafe,Coffee Shop,13.695540498450129,100.59346264219361
537,Bang Na,ร้านไข่หวาน,Thai Restaurant,13.695612684521858,100.59507742041137
538,Bang Na,ร้านไทยอัญดา,Thai Restaurant,13.680903709968012,100.57541104940083
539,Bang Na,ครัวเจ๊คิ้ม,Asian Restaurant,13.696050094213485,100.59373614849217
540,Bang Na,FamilyMart (แฟมิลี่มาร์ท),Convenience Store,13.676559369099747,100.60815835056073
541,Bang Na,เนินมหัศจรรย์ทางด่วนบางนา,Road,13.69688853518199,100.5936481969157
542,Bang Na,ร้านบ้าน ๖/๒ ตลาดน้ำบางน้ำผึ้ง,Coffee Shop,13.679774,100.573785
543,Bang Na,Bang Nam Pheung Floating Market,Market,13.679037,100.57374
544,Bang Na,ท่าเรือวัดบางกระเจ้า Wat Bang Khra Chao,Harbor / Marina,13.680170658511281,100.57361391270136
545,Bang Na,Cafe De Kobua,Café,13.692792,100.57907
546,Bang Phlat,Baan Bang Aor (บ้านบางอ้อ),Café,13.795760671686237,100.50779754952845
547,Bang Phlat,Yayoi (ยาโยอิ),Japanese Restaurant,13.788476553025854,100.50231624548992
548,Bang Phlat,Bang O Talae Phao (บางอ้อ ทะเลเผา),Seafood Restaurant,13.797380709810929,100.50856182351778
549,Bang Phlat,Starbucks (สตาร์บัคส์),Coffee Shop,13.789951963056954,100.51518941627666
550,Bang Phlat,Look Chin Sri Yan (ลูกชิ้นศรีย่าน),Noodle House,13.784805121631285,100.51283556869235
551,Bang Phlat,The Siam,Hotel,13.781878757576028,100.50477541525963
552,Bang Phlat,ก๋วยเตี๋ยวหมูต้มยำ สูตรมะนาว@จรัญฯ75,Noodle House,13.791014836837217,100.49698786460301
553,Bang Phlat,KFC Drive-Thru (เคเอฟซี ไดร์ฟทรู),Fast Food Restaurant,13.794258370577944,100.50661603027916
554,Bang Phlat,ก๋วยเตี๋ยวไก่น้ำแดง เด่นศรีย่าน,Noodle House,13.785020223966868,100.51227315828213
555,Bang Phlat,UMA Residence Hotel,Hotel,13.784254488563946,100.51281772621
556,Bang Phlat,Swensen's (สเวนเซ่นส์),Ice Cream Shop,13.788734883834374,100.50171969744683
557,Bang Phlat,MK (เอ็มเค),Hotpot Restaurant,13.790509029336956,100.51424605025372
558,Bang Phlat,ไก่แก้วก๋วยเตี๋ยวเป็ด,Noodle House,13.78537198091297,100.51618150907254
559,Bang Phlat,Kang-Pa (แกงป่าศรีย่าน),Thai Restaurant,13.783172114568652,100.51550030186705
560,Bang Phlat,ครัวในซอย,Thai Restaurant,13.790665621261809,100.4900063632922
561,Bang Phlat,ข้าวต้มปลาสวนรื่น,Asian Restaurant,13.782913,100.514796
562,Bang Phlat,Wat Phanu Rangsi Flea Market (ตลาดนัด วัดภาณุรังสี),Flea Market,13.788358381663361,100.49938585470127
563,Bang Phlat,Pepper Lunch (เปปเปอร์ ลันช์) ペッパーランチ,Steakhouse,13.789972296797753,100.51516870588162
564,Bang Phlat,Sheep Village (ชีพวิลเลจ),Restaurant,13.795616386086408,100.51237184621492
565,Bang Phlat,ตลาดนัด จรัญสนิทวงศ์ 95/1,Flea Market,13.803872353626963,100.51128885285033
566,Bang Phlat,Ruan Pair Restaurant (เรือนแพ),Thai Restaurant,13.78309391869254,100.49799565050208
567,Bang Phlat,เย็นตาโฟฮ่องเต้ ศรีย่าน,Noodle House,13.784110871480603,100.51516871640597
568,Bang Phlat,Lert Rod (เลิศรส),Noodle House,13.783818691422137,100.49607332960139
569,Bang Phlat,Chonthicha (ชลธิชา),Noodle House,13.78858676628181,100.51595986774038
570,Bang Phlat,Busaba (บุษบา),Chinese Restaurant,13.78474612081831,100.5128764393225
571,Bang Phlat,Black Canyon Coffee (แบล็คแคนยอนคอฟฟี่),Café,13.789947676102909,100.51515775795522
572,Bang Phlat,Tesco Lotus (เทสโก้ โลตัส),Department Store,13.787927204983154,100.50165153829782
573,Bang Phlat,ข้าวต้มหัวปลาสามเสน,Asian Restaurant,13.783094642764143,100.50680652631873
574,Bang Phlat,ก๋วยเตี๋ยวเรือนายเบิ้ม,Noodle House,13.776964630209292,100.5076907975455
575,Bang Phlat,บะหมี่หัวโต,Noodle House,13.784605,100.51218
576,Bang Phlat,Krua Khun Yah (ครัวคุณย่า),Thai Restaurant,13.788922780837858,100.51602390979279
577,Bang Phlat,Daradalay,Thai Restaurant,13.783455654765126,100.51910594406687
578,Bang Phlat,icecream cafe ณ บางกรวย,Ice Cream Shop,13.806223530837265,100.5024303909722
579,Bang Phlat,Home Bakery (โฮมเบเกอรี่),Bakery,13.776838,100.5103
580,Bang Phlat,Kin Khao Baan Puen (กินข้าวบ้านเพื่อน),Thai Restaurant,13.782972158810201,100.51853848173528
581,Bang Phlat,บ้านกลางซอย,Thai Restaurant,13.779207,100.509865
582,Bang Phlat,7-Eleven (เซเว่น อีเลฟเว่น),Convenience Store,13.78719548108629,100.49881924735163
583,Bang Phlat,เกษมสุขโภชนา,Chinese Restaurant,13.785827011885884,100.52036724130512
584,Bang Phlat,Factory หมูกระทะ,BBQ Joint,13.803466737196029,100.52058220771578
585,Bang Phlat,Decathlon (ดีแคทลอน),Sporting Goods Shop,13.788316384755825,100.50188589317573
586,Bang Phlat,Supreme Complex (สุพรีม คอมเพล็กซ์),Shopping Mall,13.78986967049838,100.51515943589452
587,Bang Phlat,Makro (แม็คโคร),Big Box Store,13.790970800046816,100.51324213441504
588,Bang Phlat,HOME restaurant,Thai Restaurant,13.78379634506228,100.51519116120126
589,Bang Phlat,ก๋วยเตี๋ยวเรือป้าสมจิตร,Noodle House,13.776493,100.5077
590,Bang Phlat,Starbucks (สตาร์บัคส์),Coffee Shop,13.778815219535664,100.50775766530084
591,Bang Phlat,เต้าทึงศรีย่าน,Dessert Shop,13.784256172459488,100.51178859069522
592,Bang Phlat,Fuji (ฟูจิ),Japanese Restaurant,13.789964704665328,100.51516461472708
593,Bang Phlat,Craftsman x บ้านอาจารย์ฝรั่ง,Coffee Shop,13.779402748963033,100.50646125440953
594,Bang Phlat,Kritsana Noodle (กฤษณาลูกชิ้นปลา),Noodle House,13.779986964272526,100.51280493830812
595,Bang Phlat,The Museum Of Floral Culture (พิพิธภัณฑ์วัฒนธรรมดอกไม้),Museum,13.789049825361147,100.51853604284209
596,Bang Phlat,Bar B Q Plaza (บาร์บีคิวพลาซ่า),BBQ Joint,13.789932297152392,100.51517291013317
597,Bang Phlat,Malase (มาเลศ),Café,13.783173810269142,100.51482276045436
598,Bang Phlat,Deco Bar & Bistro,Café,13.7819,100.504634
599,Bang Phlat,da Café at Baan Ongkarak,Café,13.788519293167035,100.51811552714281
600,Bang Phlat,Hachiban Ramen (ฮะจิบัง ราเมน),Ramen Restaurant,13.788559522700114,100.50165640418034
601,Bang Phlat,RiverDuck,Thai Restaurant,13.799010936115389,100.51464642618663
602,Bang Phlat,Lotus Express (โลตัส เอ็กซ์เพรส),Convenience Store,13.810541476921221,100.49799094372845
603,Bang Phlat,River Bar Cafe (ริเวอร์บาร์),Thai Restaurant,13.782231790794222,100.50132290010131
604,Bang Phlat,7-Eleven (เซเว่น อีเลฟเว่น),Convenience Store,13.790373200166298,100.50303675889612
605,Bang Phlat,ก๋วยเตี๋ยวเนื้อตุ๋น ดุสิต (รสเยี่ยม),Noodle House,13.779709445581512,100.51381523553034
606,Bang Phlat,KFC (เคเอฟซี),Fast Food Restaurant,13.788444479284209,100.50219725593804
607,Bang Phlat,Parsley Restaurant (พาสลี่ย์ เรสเตอรอง),Diner,13.779285463980003,100.50959189869394
608,Bang Phlat,Helen Coffee Shop (กาแฟสดเฮเลน),Coffee Shop,13.811778634345535,100.50407203726577
609,Bang Phlat,Café Amazon,Coffee Shop,13.810071470741175,100.5051480206477
610,Bang Phlat,Rleaw Noodle (ราดหน้าอาหลิว),Noodle House,13.78604216837,100.490371304466
611,Bang Phlat,Sukho Thai Palace (วังศุโขทัย),Palace,13.781624719408377,100.50997603223209
612,Bang Phlat,Sompong (ข้าวต้มสมพงษ์),Thai Restaurant,13.78652824778256,100.48810361141707
613,Bang Phlat,O's รส,Asian Restaurant,13.780371345168797,100.51338752887055
614,Bang Phlat,Kanabnam Restaurant (ขนาบน้ำ),Thai Restaurant,13.78203276580992,100.50120772145179
615,Bang Phlat,หมูยอจำปาทอง,Vietnamese Restaurant,13.785807806149837,100.52039218297041
616,Bang Phlat,ข้าวต้มลมโชย,Thai Restaurant,13.782271367271738,100.49943781222237
617,Bang Phlat,The Pizza Company (เดอะ พิซซ่า คอมปะนี),Pizza Place,13.788256010653726,100.50242051303755
618,Bang Phlat,Bar B Q Plaza (บาร์บีคิว พลาซ่า),BBQ Joint,13.78817976115745,100.50271200242207
619,Bang Phlat,ส้มตำเจ๊จ่อย (Je Joy),Som Tum Restaurant,13.785541585892021,100.52071048024574
620,Bang Phlat,ครัวศรแดงริมน้ำ,Thai Restaurant,13.78676273738155,100.50421874555626
621,Bang Phlat,The Waterfront (เดอะ วอเตอร์ฟร้อนท์),Thai Restaurant,13.781429305495536,100.50082493063205
622,Bang Phlat,MK (เอ็มเค),Hotpot Restaurant,13.788183603847775,100.50270487248457
623,Bang Phlat,Swensen's (สเวนเซ่นส์),Ice Cream Shop,13.7899029631043,100.51518931844032
624,Bang Phlat,7-Eleven (เซเว่น อีเลฟเว่น),Convenience Store,13.794871447865491,100.5066140235691
625,Bang Phlat,ข้าวมันไก่สมชาย,Asian Restaurant,13.809297153613999,100.5097583880704
626,Bang Phlat,EGAT Market (ตลาดหลังสวน),Market,13.811640916586471,100.50373418901624
627,Bang Phlat,Rim Bit,Thai Restaurant,13.782277560298736,100.50127785430855
628,Bang Phlat,7-Eleven (เซเว่น อีเลฟเว่น),Convenience Store,13.78216366043831,100.49979313805292
629,Bang Phlat,7-Eleven (เซเว่น อีเลฟเว่น),Convenience Store,13.782444177278128,100.4998129606247
630,Bang Phlat,7-Eleven,Convenience Store,13.792084576357787,100.48987994001963
631,Bang Phlat,แหนมเนืองป้าเก๋,Vietnamese Restaurant,13.778637,100.50651
632,Bang Phlat,7-Eleven (เซเว่น อีเลฟเว่น),Convenience Store,13.79202768045155,100.48918021341782
633,Bang Phlat,7-Eleven (เซเว่น อีเลฟเว่น),Convenience Store,13.79050804877981,100.49763037317268
634,Bang Phlat,7-Eleven (เซเว่น อีเลฟเว่น),Convenience Store,13.807560053198621,100.51160931587219
635,Bang Phlat,ส.บุญชัย,Thai Restaurant,13.777954771212466,100.51156721565579
636,Bang Phlat,เมตตาหมูทอด,Snack Place,13.778082832167183,100.50580785011762
637,Bang Phlat,River Side Hotel (โรงแรมริเวอร์ไซด์),Hotel,13.780053080027422,100.49962907274063
638,Bang Phlat,7-Eleven (เซเว่น อีเลฟเว่น),Convenience Store,13.782754983526647,100.49156092105768
639,Bang Phlat,อรวรรณ แหนมเนือง,Vietnamese Restaurant,13.778078042020415,100.50594387080437
640,Bang Phlat,Chon Thai Restaurant (ห้องอาหารช้อน),Thai Restaurant,13.781659,100.504974
641,Bang Phlat,ตลาดนัดของกินเชิงสะพานซังฮี้,Street Food Gathering,13.78222822851971,100.49978371841512
642,Bang Phlat,ก๋วยเตี๋ยวปลาเฟื่องฟ้า,Noodle House,13.806615578286767,100.49225542282419
643,Bang Phlat,ตลาดนัดหมู่บ้านสมชาย,Flea Market,13.8077133485909,100.49752565046731
644,Bang Phlat,Plin (เหล้าปั่น),Cocktail Bar,13.792643397887742,100.50553528812452
645,Bang Phlat,7-Eleven,Convenience Store,13.778181076049805,100.51226043701172
646,Bang Rak,Sawang Noodle (สว่าง บะหมี่ก้ามปู),Noodle House,13.731873458397216,100.52529036340715
647,Bang Rak,iSanook Residence,Hotel,13.732560344786831,100.52172302300679
648,Bang Rak,China Palace (ไชน่าพาเลซ),Chinese Restaurant,13.731122264287727,100.52399571987225
649,Bang Rak,ก๋วยเตี๋ยวลูกชิ้นเนื้อ,Noodle House,13.731341672167305,100.52233315341716
650,Bang Rak,Rod Dee Det (รสดีเด็ด),Noodle House,13.734807,100.52434
651,Bang Rak,Amara Bangkok,Hotel,13.728673335383366,100.52756420596495
652,Bang Rak,เพลินชัย ขนมปัง-กาแฟ,Café,13.731874746435066,100.52520350975986
653,Bang Rak,สุกี้สามย่าน,Thai Restaurant,13.734144100977481,100.52760866390587
654,Bang Rak,Lub d Bangkok - Silom,Hostel,13.727079176546647,100.52511740972582
655,Bang Rak,Jok Sam Yan (โจ๊กสามย่าน),Breakfast Spot,13.734713962245603,100.5260803629997
656,Bang Rak,Bangkok Marriott Hotel The Surawongse,Hotel,13.727206725983784,100.52234407396713
657,Bang Rak,Let's Relax,Massage Studio,13.733192833188983,100.52684593039996
658,Bang Rak,Katsu-Shin (คัสซึชิน),Tonkatsu Restaurant,13.728980248429659,100.5299509869669
659,Bang Rak,ฮกหูฉลาม (Hok Shark Fin) 福,Chinese Restaurant,13.72862474169874,100.52747391816753
660,Bang Rak,Scarlett,Wine Bar,13.725857144967879,100.52588939666748
661,Bang Rak,Le Méridien Bangkok,Hotel,13.7299733,100.5304756
662,Bang Rak,Boon Restaurant (บุญโภชนา),Chinese Restaurant,13.726804304474712,100.52732682907188
663,Bang Rak,Somboon Seafood (สมบูรณ์โภชนา),Seafood Restaurant,13.728274,100.526719
664,Bang Rak,ตลาดนัดสีลมซอย10 (หลังตึกITF),Food Court,13.727723659177453,100.52838369576509
665,Bang Rak,Executive Lounge,Lounge,13.725845736917394,100.52581124140548
666,Bang Rak,ไฮ้-นครโภชนา,Chinese Restaurant,13.735019681055313,100.5262016309007
667,Bang Rak,Creamery Boutique Ice Creams,Ice Cream Shop,13.735149946557906,100.52635718684388
668,Bang Rak,The Hop,Dance Studio,13.724700317853122,100.5235674846269
669,Bang Rak,Cheng Sim Ei (เช็งซิมอี้),Dessert Shop,13.735591511811121,100.52176343092938
670,Bang Rak,25 Degrees (ทเว้นตี้ไฟว์ ดีกรีส์),Burger Joint,13.725561823721973,100.5259843656771
671,Bang Rak,Dialogue in the Dark (บทเรียนในความมืด),Science Museum,13.73287474591001,100.5297639947031
672,Bang Rak,Pullman Bangkok Hotel G (โรงแรมพูลแมน กรุงเทพฯ จี),Hotel,13.725497609160316,100.52600249967614
673,Bang Rak,CrossFit TEN500,Gym / Fitness Center,13.724631791108148,100.52744814323492
674,Bang Rak,Somboon Seafood (สมบูรณ์โภชนา),Seafood Restaurant,13.73286896820044,100.52952954897734
675,Bang Rak,ก๋วยเตี๋ยวเอี่ยมน้อย,Noodle House,13.737780117156607,100.52186608314514
676,Bang Rak,Hanaya (ฮานาย่า),Japanese Restaurant,13.729898229590129,100.51653565513185
677,Bang Rak,Starbucks (สตาร์บัคส์),Coffee Shop,13.732326448534737,100.53082941093302
678,Bang Rak,Arima Onsen (อะริมะ ออนเซน) 有馬温泉,Spa,13.729757828625686,100.53227536350917
679,Bang Rak,Water Library (วอเตอร์ ไลบราลี่),French Restaurant,13.732394776601971,100.53042224028788
680,Bang Rak,Luka (ลูก้า),Café,13.72166075017614,100.52387807354857
681,Bang Rak,Ciao Pizza,Pizza Place,13.72689672086686,100.53079147869032
682,Bang Rak,Kalapapruek (กัลปพฤกษ์),Thai Restaurant,13.722577763904592,100.5220934702832
683,Bang Rak,นิวเฮงกี่ บางรัก (ร้านใหม่),Chinese Restaurant,13.728763290208608,100.51584966141594
684,Bang Rak,L'Atelier de Joël Robuchon Bangkok,French Restaurant,13.72356516995992,100.528279839463
685,Bang Rak,Charm Eatery and Bar (ชาม),Bistro,13.723124734752814,100.52592996926047
686,Bang Rak,W Bangkok,Hotel,13.722029027200787,100.5289068665843
687,Bang Rak,Grand Palace Restaurant (ภัตตาคาร แกรนด์พาเลซ),Chinese Restaurant,13.723482032956788,100.5198524063272
688,Bang Rak,Co van Kessel,Tour Provider,13.73055252984124,100.5138346153356
689,Bang Rak,Burberri Spa Bangkok,Spa,13.723065217071506,100.51900468564241
690,Bang Rak,CU Flea Market (ตลาดนัดจุฬา),Flea Market,13.7347200842902,100.5312239136751
691,Bang Rak,น้ำเงี้ยวป้าสุข,Noodle House,13.725588086649667,100.53138016616683
692,Bang Rak,Loftel 22 Hostel,Hostel,13.733211804380131,100.51446202048069
693,Bang Rak,Himali Cha Cha & Son,Indian Restaurant,13.724936268684857,100.51675912363376
694,Bang Rak,TCDC Bangkok,Art Gallery,13.727162671214913,100.51556051846724
695,Bang Rak,KERK,Café,13.72549,100.528207
696,Bang Rak,G's Bangkok,German Restaurant,13.728307,100.533005
697,Bang Rak,Foodland (ฟู้ดแลนด์),Supermarket,13.728840339033493,100.53217470918078
698,Bang Rak,Maggie Choo's,Hotel Bar,13.722891991160017,100.51844169958548
699,Bang Rak,Soy Sauce Factory,Art Gallery,13.73153131097774,100.51466761162669
700,Bang Rak,Café Amazon (คาเฟ่ อเมซอน),Coffee Shop,13.735177672573828,100.53183568911552
701,Bang Rak,Rengaya (เรนกายา),BBQ Joint,13.72917207580265,100.53338644019698
702,Bang Rak,Magic Hands,Massage Studio,13.730038786107222,100.515001537392
703,Bang Rak,The Reading Room,Library,13.72332502169807,100.52062520801053
704,Bang Rak,Starbucks (สตาร์บัคส์),Coffee Shop,13.74007016484754,100.52443357418541
705,Bang Rak,Whisgars,Whisky Bar,13.722993365377098,100.51927901375005
706,Bang Rak,Le Café des Stagiaires,Bar,13.722136438692058,100.52597912894032
707,Bang Rak,Rocket Coffeebar (ร้อกเก็ต คอฟฟี่บาร์),Café,13.72279375299354,100.5257791520794
708,Bang Rak,Infinity Spa,Spa,13.722145879784222,100.51838269741133
709,Bang Rak,Charoen Saeng Silom (เจริญแสงสีลม),Asian Restaurant,13.722793,100.516884
710,Bang Rak,Absolute Yoga,Yoga Studio,13.727648,100.533023
711,Bang Rak,Baan Somtum (บ้านส้มตำ),Som Tum Restaurant,13.720631,100.520797
712,Bang Rak,Supanniga Eating Room (ห้องทานข้าวสุพรรณิการ์),Thai Restaurant,13.72300641256053,100.527475154822
713,Bang Rak,๘๐/๒๐ Eighty Twenty,Restaurant,13.731001136617978,100.51550892959236
714,Bang Rak,Aeh Seafood (เอ๋ซีฟู้ด),Seafood Restaurant,13.740390791937823,100.52230596542358
715,Bang Rak,Aoringo (อะโอะรินโกะ),Japanese Curry Restaurant,13.728715017270973,100.5337990773729
716,Bang Rak,Royal Orchid Sheraton Hotel & Towers (โรงแรมรอยัลออคิดเชอราตัน),Hotel,13.729053,100.513574
717,Bang Rak,Bangrak Spa Center (บางรัก สปา),Spa,13.724838880120673,100.51466749232264
718,Bang Rak,Gyu-Kaku (กิวคาขุ),BBQ Joint,13.728763030753322,100.53391434412727
719,Bang Rak,Divana Virtue Spa,Spa,13.72089644719323,100.52149573547787
720,Bang Rak,Everyday Karmakamet,Café,13.728885268932313,100.53410919440022
721,Bang Rak,Eat Me,Restaurant,13.725605682894129,100.53400294266783
722,Bang Rak,"Mandarin Oriental, Bangkok",Resort,13.7239926,100.5142411
723,Bang Rak,Harmonique (ฮาร์โมนิค),Thai Restaurant,13.726347,100.515594
724,Bang Rak,Tropic City,Cocktail Bar,13.730751043625121,100.51540534483998
725,Bang Rak,Longleng Lookchin Pla (ล้งเล้ง ลูกชิ้นปลา),Noodle House,13.739939,100.522316
726,Bang Rak,ข้าวต้มสันติภาพ,Thai Restaurant,13.739500843897229,100.52246244905704
727,Bang Rak,Tealicious Café (แซ่บเวอร์),Thai Restaurant,13.722544685901584,100.51686602419892
728,Bang Rak,The Bamboo Bar,Hotel Bar,13.7241436,100.5139267
729,Bang Rak,โจ๊กตลาดน้อย (เจ๊หมวยเกี้ย),Breakfast Spot,13.737322,100.514274
730,Bang Rak,OPUS,Italian Restaurant,13.721803727893235,100.52349414398702
731,Bang Rak,Eastin Grand Hotel Sathorn,Hotel,13.719062063967092,100.52174839823431
732,Bang Rak,เป็ดตุ๋นเจ้าท่า,Chinese Restaurant,13.733060537870326,100.51315313302194
733,Bang Rak,More Than a Game café (มอร์ แดน อะ เกม คาเฟ่),Café,13.74013159055907,100.52414070214367
734,Bang Rak,Pacamara Boutique Coffee Roasters,Coffee Shop,13.732901,100.536407
735,Bang Rak,King Power Mahanakhon SkyWalk,Scenic Lookout,13.723324467419253,100.52817156955578
736,Bang Rak,A Coffee Roaster by li-bra-ry,Coffee Shop,13.727875359587896,100.51476365763047
737,Bang Rak,The Met (เดอะ เม็ท),Residential Building (Apartment / Condo),13.72281181786042,100.53404732665251
738,Bang Rak,ครัวไฟหมุน,Restaurant,13.74104509874795,100.52258677472945
739,Bang Rak,เช็งซิ้มอี้ (แป้งกลมอารมณ์ดี) ตรอกโรงหมู,Dessert Shop,13.736745063972645,100.51477210195881
740,Bang Rak,Thanying (ท่านหญิง),Thai Restaurant,13.721695070922518,100.52193958332008
741,Bang Rak,Ascott Sathorn Bangkok,Hotel,13.720945517083889,100.52817195653915
742,Bang Rak,Café Amazon (คาเฟ่ อเมซอน),Coffee Shop,13.728927732438919,100.53507215647066
743,Bang Rak,After You (อาฟเตอร์ ยู),Dessert Shop,13.72864315500612,100.53478290707392
744,Bang Rak,เกาเหลาเครื่องใน 3 หมู (ร้อยอาจารย์เจ้าเก่า),Noodle House,13.7413,100.523018
745,Bang Rak,Le Normandie,French Restaurant,13.7239423,100.5142282
746,Bang Sue,Starbucks (สตาร์บัคส์),Coffee Shop,13.806059875215832,100.53796324397112
747,Bang Sue,ทิพย์รส,Ice Cream Shop,13.807352342448052,100.53117244508203
748,Bang Sue,ข้าวหมูแดงนายไซ,Asian Restaurant,13.801977148428321,100.53513272634608
749,Bang Sue,Bang Sue Junction (SRT1007) (สถานีรถไฟชุมทางบางซื่อ),Train Station,13.8046088768222,100.54012606319019
750,Bang Sue,Pracha Chun Badminton Court (สนามแบดมินตันประชาชื่น),Badminton Court,13.81240281139643,100.53414763924242
751,Bang Sue,Garlic (กาลิค),Thai Restaurant,13.816980774251931,100.537202785141
752,Bang Sue,MRT Tao Poon (PP16/BL10) (MRT เตาปูน),Train Station,13.806117044557455,100.530846118927
753,Bang Sue,ก๋วยจั๊บสามทุ่ม,Noodle House,13.802495019981425,100.53905668738837
754,Bang Sue,ก๋วยเตี๋ยวเรือรสไทย,Noodle House,13.80704,100.5324
755,Bang Sue,Bella Casa (เบลล่า คาซ่า),Thai Restaurant,13.802068185036982,100.53886872330297
756,Bang Sue,ก๋วยเตี๋ยว (ล็อคล้อ) เตาปูน,Noodle House,13.807776129905184,100.5337705834386
757,Bang Sue,อ.ประทิน ไอศครีม,Ice Cream Shop,13.806887412237314,100.53137297015694
758,Bang Sue,ตุ๊ก โภชนา,Thai Restaurant,13.805912827763606,100.53255489833317
759,Bang Sue,บ้านมะขาม,Thai Restaurant,13.80765903180337,100.54116725921631
760,Bang Sue,A LITTLE CAFE,Coffee Shop,13.80364886336062,100.5356606202058
761,Bang Sue,Queen Sirikit Park (สวนสมเด็จพระนางเจ้าสิริกิติ์ฯ),Park,13.80670050039042,100.55176734924316
762,Bang Sue,ก๋วยจั๊บจรัสพัฒน์,Noodle House,13.805216730479922,100.53437954800354
763,Bang Sue,MK (เอ็มเค),Hotpot Restaurant,13.806217564944944,100.53397678755742
764,Bang Sue,SIP Cafe & Bistro,Bar,13.822390167205766,100.53763513969602
765,Bang Sue,Swensen's (สเวนเซ่นส์),Ice Cream Shop,13.806268867815504,100.534016124105
766,Bang Sue,ขาหมู จตุจักร,Thai Restaurant,13.80864115454023,100.54824403835684
767,Bang Sue,Chatuchak Market Section7 Art Zone,Art Gallery,13.802201770349697,100.55175747326889
768,Bang Sue,ลานดิน (ลานรินสุรา),Whisky Bar,13.80265283486,100.54777923774394
769,Bang Sue,Gateway at Bangsue (เกตเวย์ แอท บางซื่อ),Shopping Mall,13.805853430272476,100.52403869800251
770,Bang Sue,Chatuchak Weekend Market (ตลาดนัดจตุจักร),Flea Market,13.79997790289955,100.55070486698008
771,Bang Sue,ชิมไทย,Thai Restaurant,13.823648960923977,100.53727529776172
772,Bang Sue,Kumamura (คุมามุระ),Japanese Restaurant,13.802401906661176,100.5348574958519
773,Bang Sue,Vachirabenjatas Park (Rot Fai Park) (สวนวชิรเบญจทัศ (สวนรถไฟ)),Park,13.815865919587802,100.55360596107312
774,Bang Sue,หมูย่างน้ำผึ้งแม่สุมณฑา,BBQ Joint,13.7993113617032,100.54982963666713
775,Bang Sue,Starbucks (สตาร์บัคส์),Coffee Shop,13.806223217754281,100.52399168553308
776,Bang Sue,นายงี้ บะหมี่ตู้ไม้,Noodle House,13.806313249758915,100.52631253558644
777,Bang Sue,จตุจักร ตลาดต้นไม้,Garden Center,13.799622250231314,100.55052355163836
778,Bang Sue,Suankanvela (สวนกาลเวลา),Thai Restaurant,13.797042217486261,100.54195553181334
779,Bang Sue,Chatuchak Park (สวนจตุจักร),Park,13.804106707231549,100.55415542102018
780,Bang Sue,Naibai Fishball (โอ้โฮ นิวลูกชิ้นปลานายใบ้),Noodle House,13.806262908652574,100.52860379219055
781,Bang Sue,Rungroj Boiled Rice (ข้าวต้มรุ่งโรจน์),Thai Restaurant,13.810039713888886,100.52179515911705
782,Bang Sue,ก๋วยเตี๋ยวเรืออยุธยา (อ.เสนา),Noodle House,13.815478208764816,100.52060008049011
783,Bang Sue,Siam Orchid Center (ศูนย์กล้วยไม้สยาม),Flower Shop,13.797543778119604,100.54564038176686
784,Bang Sue,Or Tor Kor Market (ตลาด อ.ต.ก.),Farmers Market,13.797238614834292,100.5473826064084
785,Bang Sue,Seefah (สีฟ้า),Thai Restaurant,13.80630146387026,100.53406439150963
786,Bang Sue,ต้นเตย,Thai Restaurant,13.81068670773585,100.5218638437825
787,Bang Sue,แป๊ะ โจ๊กหม้อทองเหลือง 38 ปี (Pae),Chinese Restaurant,13.807413055333651,100.5216235337511
788,Bang Sue,ลาบอุดรโภชนา,Som Tum Restaurant,13.82633508021762,100.53056957711806
789,Bang Sue,UNIQLO (ยูนิโคล่),Clothing Store,13.805606211486412,100.52403091086224
790,Bang Sue,Koko Drip,Coffee Shop,13.802332152323595,100.55169315107395
791,Bang Sue,Section 5 (โครงการ 5),Clothing Store,13.80001651113872,100.55186150599029
792,Bang Sue,Wantong Café (วันทอง),Café,13.799086692405195,100.54911717037575
793,Bang Sue,Jad Jan (จัดจ้าน),Som Tum Restaurant,13.798904487674552,100.55133409771442
794,Bang Sue,Manoon Pet Shop ตลาด อ.ต.ก.,Pet Store,13.797580612938273,100.54159778468069
795,Bang Sue,T.Bar,Pub,13.822179350271426,100.52647673656774
796,Bang Sue,Ban Paew Coco JJ (ไอศกรีมบ้านแพ้ว),Ice Cream Shop,13.79832645456574,100.54896884614378
797,Bang Sue,Factory หมูกระทะ,BBQ Joint,13.803466737196029,100.52058220771578
798,Bang Sue,ยำเจ๊อึ่ง,Thai Restaurant,13.797990033017578,100.54880222390982
799,Bang Sue,Som Tum Or Tor Kor (สุดใจไก่ย่าง ส้มตำ อ.ต.ก.),Som Tum Restaurant,13.79684461784348,100.54667661190328
800,Bang Sue,เจริญชัย ไก่ตอน,Thai Restaurant,13.823935125884718,100.53747537434383
801,Bang Sue,ขาหมูประชาชื่น,Thai Restaurant,13.824532,100.537506
802,Bang Sue,Me & Family (สุกี้หมีแฟมิลี่),Hotpot Restaurant,13.823294196289579,100.53828328568098
803,Bang Sue,CAFÉ KALDI (คาเฟคาลดี),Café,13.801625294432652,100.54853389575995
804,Bang Sue,ชมรมมังสวิรัติแห่งประเทศไทย สาขาจตุจักร,Vegetarian / Vegan Restaurant,13.79943731073929,100.5469989457111
805,Bang Sue,Sanan Seafood (สนั่นอาหารทะเล),Seafood Restaurant,13.79653148974806,100.54966449737549
806,Bang Sue,เตียกิมฮ้อ ก๋วยเตี๋ยวลูกชิ้นปลา,Noodle House,13.808882784524288,100.53119761530797
807,Bang Sue,Starbucks (สตาร์บัคส์),Coffee Shop,13.803438,100.553635
808,Bang Sue,Children's Discovery Museum (พิพิธภัณฑ์เด็กแห่งกรุงเทพมหานคร),Museum,13.803349327088467,100.55100156558328
809,Bang Sue,Chatuchak Fish Market (ตลาดปลาจตุจักร),Shopping Mall,13.80304183740994,100.55005440377316
810,Bang Sue,ข้าวต้ม เฮียแบะบางโพ,Thai Restaurant,13.806943298805804,100.52166580595625
811,Bang Sue,Café DoiTung (คาเฟ่ ดอยตุง),Café,13.79956778698003,100.54857645161455
812,Bang Sue,Jeed-Jard (จี๊ด-จ๊าด),Som Tum Restaurant,13.801513280550731,100.55177072478304
813,Bang Sue,Royal Project Shop (โครงการหลวง),Farmers Market,13.797348330099185,100.54834493774314
814,Bang Sue,เอ็ดจิ้มจุ่ม,Hotpot Restaurant,13.80701387429209,100.53412102250462
815,Bang Sue,Food Court,Food Court,13.801983618478783,100.5497397790066
816,Bang Sue,ซอย ประชานฤมิตร,Furniture / Home Store,13.809860080146173,100.52669743375696
817,Bang Sue,BTS Mo Chit (N8) (BTS หมอชิต),Train Station,13.802698226418185,100.5539278395768
818,Bang Sue,ก๋วยเตี๋ยวไก่ต้มยำสูตรมะนาว,Noodle House,13.813736338075948,100.52127244072382
819,Bang Sue,Bangkok Butterfly Garden and Insectarium (อุทยานผีเสื้อและแมลงกรุงเทพฯ),Zoo Exhibit,13.809568188940444,100.55491827765597
820,Bang Sue,Section 2 (โครงการ 2),Women's Store,13.798075860974594,100.54915530053245
821,Bang Sue,Vises Kaiyang (วิเศษไก่ย่าง),Thai Restaurant,13.80603872629911,100.52134201309777
822,Bang Sue,Kai Yang Jaroon Dang (ไก่ย่างจรูญ-แดง),Thai Restaurant,13.80138830406203,100.52284688418544
823,Bang Sue,โตเป็ดย่าง,Thai Restaurant,13.807582379404804,100.5219388236458
824,Bang Sue,Rot Fai Park Flea Market (ตลาดนัดสวนรถไฟ),Flea Market,13.816629444507182,100.55308699607849
825,Bang Sue,ตลาดบางซ่อน,Market,13.821778861325573,100.53247477368674
826,Bang Sue,บังหมานราชาข้าวหมกไก่,Halal Restaurant,13.80064351639352,100.55188154860878
827,Bang Sue,Pet Zone (โซนสัตว์เลี้ยง),Pet Store,13.801058798008743,100.54988870980169
828,Bang Sue,Sweet Maple Coffee & Dessert,Café,13.822239120571055,100.53265064286953
829,Bang Sue,DinPaow Cuisine (ดินเผา),Som Tum Restaurant,13.798288383971112,100.55097481297032
830,Bang Sue,Thitaree (ฐิตารีย์),Thai Restaurant,13.815720007215704,100.55319520480832
831,Bang Sue,ฝุ่นตลบ,Som Tum Restaurant,13.798667063485121,100.54896085155292
832,Bang Sue,อร่อยแล้วสั่งต่อ (เกาเหลาหม้อไฟประชาชื่น),Noodle House,13.824147588739761,100.5374825914447
833,Bang Sue,พิริยะ คอร์ทแบด,Badminton Court,13.82362170484439,100.53515150944304
834,Bang Sue,Tummour (ตำมั่ว),Som Tum Restaurant,13.824768174232982,100.53766755753415
835,Bang Sue,Ajisen Ramen (อาจิเซนราเมง) 味千ラーメン,Noodle House,13.802077776223285,100.54975885316588
836,Bang Sue,Kor Tek Chiang 2 (กอเต็กเชียง 2),Noodle House,13.825778147513672,100.537845325407
837,Bang Sue,Chester's Grill (เชสเตอร์ กริลล์),Fast Food Restaurant,13.802381222982037,100.54965443472034
838,Bang Sue,ข้าวพระรามลงสรง,Thai Restaurant,13.796794344105018,100.54765845043812
839,Bang Sue,Siam Gypsy Junction (ชุมทางสยามยิปซี),Night Market,13.822285838463282,100.53231691771343
840,Bang Sue,พริกหยวก,Thai Restaurant,13.798034662061962,100.5486879739234
841,Bang Sue,ก๋วยเตี๋ยวเรืออยุธยา ป้าแหม่ม,Noodle House,13.81370711420773,100.52137207839075
842,Bang Sue,Peppercorns (พริกไทยดำ),Steakhouse,13.805230200184308,100.52155108642046
843,Bang Sue,H&M,Clothing Store,13.805795,100.523781
844,Bang Sue,ทับทิมสยาม,Dessert Shop,13.799484247921962,100.54922905966887
845,Bang Sue,Bar B Q Resort (บาร์บีคิว รีสอร์ท),BBQ Joint,13.826081939451688,100.53046969570741
846,Bangkok Noi,สวนเฉลิมพระเกียรติ ๘๐ พรรษา พระบาทสมเด็จพระเจ้าอยู่หัว,Park,13.77226574904896,100.4684410214013
847,Bangkok Noi,Nai Ped Mooh Nam Tok (ก๋วยเตี๋ยวหมูน้ำตก นายเป็ด),Noodle House,13.772319025709066,100.46539820929017
848,Bangkok Noi,Oldman Café,Café,13.773552354687371,100.46693948631044
849,Bangkok Noi,ขนมเบื้องแม่ประภา บางขุนนนท์,Dessert Shop,13.77021600408904,100.4688161844735
850,Bangkok Noi,ก๋วยเตี๋ยวเรือ เจ๊จุ๋ม,Noodle House,13.76703865587914,100.4711065519587
851,Bangkok Noi,Swensen's (สเวนเซ่นส์),Ice Cream Shop,13.77732,100.47648
852,Bangkok Noi,Starbucks (สตาร์บัคส์),Coffee Shop,13.762176483957113,100.47220184122615
853,Bangkok Noi,Starbucks (สตาร์บัคส์),Coffee Shop,13.777083,100.476364
854,Bangkok Noi,Fitness First (ฟิตเนส เฟิรส์ท),Gym / Fitness Center,13.77657196288211,100.47604975116802
855,Bangkok Noi,After You (อาฟเตอร์ ยู),Dessert Shop,13.778203229655082,100.47698199748993
856,Bangkok Noi,BonChon Chicken (บอนชอน ชิคเก้น),Fried Chicken Joint,13.778001,100.47571
857,Bangkok Noi,Ta Bun Tum (ตะบันตำ),Som Tum Restaurant,13.779375097670426,100.47746451036217
858,Bangkok Noi,CentralPlaza Pinklao (เซ็นทรัลพลาซา ปิ่นเกล้า),Shopping Mall,13.77788246397832,100.47641757741951
859,Bangkok Noi,COPPER International Buffet,Buffet,13.779691538968633,100.47492484830575
860,Bangkok Noi,Bangkok Noi Canal (คลองบางกอกน้อย),Canal,13.764990152509538,100.47604322433472
861,Bangkok Noi,ผัดไทยใบตอง เจ๊ตา,Noodle House,13.777222430335078,100.47364678238687
862,Bangkok Noi,Nittaya Kai Yang (นิตยาไก่ย่าง),Som Tum Restaurant,13.782159585048767,100.47204156958631
863,Bangkok Noi,Took Lae Dee (ถูกและดี),Diner,13.758171,100.47036
864,Bangkok Noi,The Galley Café (เดอะแกลลี่คาเฟ่),Café,13.782086541254277,100.46469126856736
865,Bangkok Noi,Ippudo (อิปปุโดะ),Ramen Restaurant,13.777692643545182,100.47651529312134
866,Bangkok Noi,Foodland (ฟู้ดแลนด์),Supermarket,13.782931158539654,100.47328582820636
867,Bangkok Noi,The Terrace (เดอะ เทอเรส),Thai Restaurant,13.777740439122393,100.4752673885763
868,Bangkok Noi,Starbucks (สตาร์บัคส์),Coffee Shop,13.777617916718436,100.4754092612468
869,Bangkok Noi,Boon Tong Kee (บุญตงกี่),Chinese Restaurant,13.777449,100.4765
870,Bangkok Noi,MK (เอ็มเค),Hotpot Restaurant,13.759870675134737,100.47024424790399
871,Bangkok Noi,Rosthip Seafood (รสทิพย์ซีฟู้ด),Seafood Restaurant,13.78539026874637,100.46286183727194
872,Bangkok Noi,Took Lae Dee (ถูกและดี),Diner,13.782912767095317,100.47328688027665
873,Bangkok Noi,Tops Market (ท็อปส์ มาร์เก็ต),Supermarket,13.777663,100.47546
874,Bangkok Noi,Health Land (เฮลท์แลนด์),Spa,13.772343877234286,100.48254255027892
875,Bangkok Noi,ZARA,Clothing Store,13.777314999934084,100.47651463004898
876,Bangkok Noi,Pancake Café (แพนเค้ก คาเฟ่),Café,13.778046,100.47629
877,Bangkok Noi,Pepper Lunch (เปปเปอร์ ลันช์),Japanese Restaurant,13.77829,100.476395
878,Bangkok Noi,Chan Spa (จันทร์สปา),Spa,13.777062983245907,100.4751149576516
879,Bangkok Noi,Bar B Q Plaza (บาร์บีคิวพลาซ่า),BBQ Joint,13.7779045,100.47673
880,Bangkok Noi,ลาบอรณี,Som Tum Restaurant,13.755271,100.47241
881,Bangkok Noi,Sushi Hiro (ซูชิ ฮิโระ),Sushi Restaurant,13.779886417281862,100.47511797954816
882,Bangkok Noi,น้ำเต้าหู้ไหหลำ,Snack Place,13.759403925824433,100.46959684021877
883,Bangkok Noi,Greyhound Café (เกรฮาวด์ คาเฟ่),Café,13.778255,100.476685
884,Bangkok Noi,ก๋วยเตี๋ยวเรืออยุธยา ยกซด,Noodle House,13.77736,100.47767
885,Bangkok Noi,Sanrio,Gift Shop,13.777771042741342,100.47528660558376
886,Bangkok Noi,UNIQLO (ยูนิโคล่),Clothing Store,13.777981,100.47677
887,Bangkok Noi,Shabushi (ชาบูชิ),Shabu-Shabu Restaurant,13.777503433221876,100.47638629746056
888,Bangkok Noi,Au Bon Pain (โอ บอง แปง),Café,13.778307,100.47608
889,Bangkok Noi,Cine Milk (โรงนม),Café,13.778821123790005,100.47768106679436
890,Bangkok Noi,ยืนพื้น ก๋วยจั๊บน้ำข้น,Noodle House,13.755892702516592,100.47810316085814
891,Bangkok Noi,Farm Design (ฟาร์มดีไซน์) ファームデザイン (ฟาร์มดีไซน์),Bakery,13.778195,100.4758
892,Bangkok Noi,B2S Think Space (บีทูเอส ธิงค์สเปซ),Bookstore,13.777609,100.47536
893,Bangkok Noi,Yayoi (ยาโยอิ),Japanese Restaurant,13.777314,100.47602
894,Bangkok Noi,Sizzler (ซิซซ์เลอร์),Steakhouse,13.778069,100.47552
895,Bangkok Noi,Kouen Sushi Bar,Sushi Restaurant,13.779842831840922,100.4750599419817
896,Bangkok Noi,BKK Grill Steak,Steakhouse,13.759147441664178,100.46877706002329
897,Bangkok Noi,McDonald's (แม็คโดนัลด์),Fast Food Restaurant,13.771327175388752,100.48374718823413
898,Bangkok Noi,Petchyindee Kingdom,Boxing Gym,13.767778565734025,100.48000632567746
899,Bangkok Noi,ก๋วยเตี๋ยวเนื้อวัดดงมูลเหล็ก,Noodle House,13.755044,100.470795
900,Bangkok Noi,Hachiban Ramen (ฮะจิบัง ราเมน),Ramen Restaurant,13.776927971764525,100.47621426216219
901,Bangkok Noi,บ้านเนินนม นมสด ขนมปังปิ้ง (Baan Neพn Nom),Dessert Shop,13.75972600887561,100.47786008075937
902,Bangkok Noi,Chao Phraya Market (ตลาดนัดเจ้าพระยา),Flea Market,13.783492092479216,100.47203371969005
903,Bangkok Noi,Loft to bar,Bar,13.788353394894266,100.471848739061
904,Bangkok Noi,Bar B Q Resort (บาร์บีคิว รีสอร์ท),BBQ Joint,13.779883349773172,100.47584347635758
905,Bangkok Noi,Foodland (ฟู้ดแลนด์),Supermarket,13.758133,100.470505
906,Bangkok Noi,เย็นคอ บาร์,Bar,13.772290508839532,100.48076390085905
907,Bangkok Noi,ZEN (เซน),Japanese Restaurant,13.77859,100.47601
908,Bangkok Noi,Pheonix Soccer Field (ฟินิกซ์ ซอกเกอรฟิลด์),Soccer Field,13.77913861347599,100.4571248315231
909,Bangkok Noi,Princess Maha Chakri Sirindhorn Anthropology Centre (SAC) (ศูนย์มานุษยวิทยาสิรินธร),History Museum,13.783951156549556,100.45872516855823
910,Bangkok Noi,Barnhouse (บาร์นเฮ้าส์),Steakhouse,13.785510814619213,100.47071594053435
911,Bangkok Noi,ขาหมูฮ่องเต้,Asian Restaurant,13.786006555039165,100.47032616094052
912,Bangkok Noi,Golden Place (โกลเด้น เพลซ),Supermarket,13.759775019522902,100.48056183904279
913,Bangkok Noi,Wat Taling Chan Floating Market (ตลาดน้ำวัดตลิ่งชัน),Floating Market,13.777875559205773,100.45786341694951
914,Bangkok Noi,Krua Sorn Daeng (ครัวศรแดง),Thai Restaurant,13.786528751824992,100.46334028244019
915,Bangkok Noi,KFC (เคเอฟซี),Fast Food Restaurant,13.783445541812819,100.45564223073076
916,Bangkok Noi,รุ่งอาร์ท,Arts & Crafts Store,13.755208337502488,100.47470364505327
917,Bangkok Noi,Groove Evening,Bar,13.783933,100.471428
918,Bangkok Noi,Bang Khun Si Market (ตลาดบางขุนศรี),Market,13.759078895107434,100.46938391158992
919,Bangkok Noi,อิ่มปลาเผา ตลิ่งชัน,Seafood Restaurant,13.771690217055864,100.45082010485946
920,Bangkok Noi,Inthanin (อินทนิล),Coffee Shop,13.77625240260709,100.45150525698176
921,Bangkok Noi,ช. โภชนา,Noodle House,13.757648091945574,100.47792965897472
922,Bangkok Noi,Fitness House,Gym / Fitness Center,13.754888989877283,100.46994564404878
923,Bangkok Noi,7-Eleven (เซเว่น อีเลฟเว่น),Convenience Store,13.779707838726493,100.46122813665966
924,Bangkok Noi,Woodstock (วู้ดสต็อค),Asian Restaurant,13.783957420716591,100.46423005446714
925,Bangkok Noi,Taling Chan Floating Market (ตลาดน้ำตลิ่งชัน),Floating Market,13.777086694278628,100.45596429888049
926,Bangkok Noi,7-Eleven (เซเว่น อีเลฟเว่น),Convenience Store,13.759366955169956,100.46958042874492
927,Bangkok Noi,7-Eleven (เซเว่น อีเลฟเว่น),Convenience Store,13.777723991203658,100.45545384904368
928,Bangkok Noi,7-Eleven (เซเว่น อีเลฟเว่น),Convenience Store,13.773644772426131,100.45277955000248
929,Bangkok Noi,7-Eleven (เซเว่น อีเลฟเว่น),Convenience Store,13.754441,100.467158
930,Bangkok Noi,7-Eleven (เซเว่น อีเลฟเว่น),Convenience Store,13.785087,100.460722
931,Bangkok Noi,7-Eleven (เซเว่น อีเลฟเว่น),Convenience Store,13.786548379749284,100.47160850349458
932,Bangkok Noi,7-Eleven (เซเว่น อีเลฟเว่น),Convenience Store,13.75710154786465,100.46868324279785
933,Bangkok Noi,7-Eleven (เซเว่น อีเลฟเว่น),Convenience Store,13.785938555086025,100.46201307283927
934,Bangkok Noi,สวนสี่กรุง,Thai Restaurant,13.769031313445067,100.45164566318063
935,Bangkok Noi,Nakhon Luang Market (ตลาดนครหลวง),Farmers Market,13.753025532464601,100.4691546559443
936,Bangkok Noi,T.Thailand Badminton Club,Badminton Court,13.77198928202744,100.48567912652258
937,Bangkok Noi,Power Leaders Fitness Pinklao,Gym / Fitness Center,13.786302124564475,100.46959097568494
938,Bangkok Noi,Lotus Express (โลตัส เอ็กซ์เพรส),Grocery Store,13.78499634605635,100.46118394289567
939,Bangkok Noi,Rabika Coffee (ราบิก้า คอฟฟี่),Coffee Shop,13.785049600758649,100.4609404903099
940,Bangkok Noi,ก๋วยเตี่ยวลูกชิ้นปลานายเหลา,Noodle House,13.783290518832846,100.45493029650699
941,Bangkok Noi,The mall ท่าพระ Oat mobile ซื้อ-ขายแลกเปลี่ยน ปลดล็อค ลงโปรแกรม Iphone Ipad Blackb,Mobile Phone Shop,13.775703456770488,100.46029500454596
942,Bangkok Noi,Bangkok Noi Market (ตลาดบางกอกน้อย),Market,13.756424925166915,100.47794847442864
943,Bangkok Noi,ร้านป้าหลังมอ,Restaurant,13.780427,100.460028
944,Bangkok Noi,ก๋วยเตี๋ยวสุโขทัย,Noodle House,13.784077,100.464157
945,Bangkok Noi,ลูกชิ้นหมูนายฮุย,Thai Restaurant,13.757367233402151,100.46161237030819
946,Bangkok Yai,หมี่กรอบจีนหลี,Chinese Restaurant,13.722141,100.4773
947,Bangkok Yai,นิ-อ่าง น้ำแข็งไส ไอศกรีม (Ni-Ang) (นิ-อ่าง น้ำแข็งไส ไอศกรีม),Dessert Shop,13.7205153960756,100.47746989686902
948,Bangkok Yai,Talat Phlu Market (ตลาดพลู),Farmers Market,13.72083120678069,100.47733576348092
949,Bangkok Yai,สุณีข้าวหมูแดงตลาดพลู,Thai Restaurant,13.720571752088135,100.47751606804852
950,Bangkok Yai,ขนมหวานตลาดพลู,Dessert Shop,13.720753055542868,100.47742573840976
951,Bangkok Yai,ก๋วยเตี๋ยวเป็ดย้งฮุย,Noodle House,13.720793593557646,100.47690627626608
952,Bangkok Yai,ลิ้มโภชนา ข้าวมันไก่,Asian Restaurant,13.72186745362605,100.48072817240835
953,Bangkok Yai,Poseidon Pub,Pub,13.717663586814853,100.47770478691672
954,Bangkok Yai,Starbucks (สตาร์บัคส์),Coffee Shop,13.713457294051176,100.47881955440711
955,Bangkok Yai,BTS Talat Phlu (S10) (BTS ตลาดพลู),Train Station,13.714287947546097,100.47694444656372
956,Bangkok Yai,ตึ๊ง ข้าวต้มหัวปลา หลังติดรถไฟ,Seafood Restaurant,13.721332628447463,100.4790167514266
957,Bangkok Yai,โจ๊กเปิดหม้อ,Asian Restaurant,13.717641999430496,100.47774178315117
958,Bangkok Yai,Sizzler (ซิซซ์เลอร์),Steakhouse,13.71371000140928,100.48040633114795
959,Bangkok Yai,Starbucks (สตาร์บัคส์),Coffee Shop,13.723233717569872,100.46361419506952
960,Bangkok Yai,Bar B Q Plaza (บาร์บีคิว พลาซ่า),BBQ Joint,13.713114936956503,100.47911388019011
961,Bangkok Yai,Thonburi Plaza,Other Nightlife,13.717508989724907,100.47776792710191
962,Bangkok Yai,The Artists' House Art Gallery And Unique Handicraft (บ้านศิลปิน คลองบางหลวง),Art Gallery,13.731299481963818,100.4633249568153
963,Bangkok Yai,Tong Leng (บะหมี่ตงเล้ง),Noodle House,13.720614734961524,100.47752109476626
964,Bangkok Yai,ลิ่มซังข้าวมันไก่,Asian Restaurant,13.730746,100.47332
965,Bangkok Yai,ตาเมืองบะหมี่เกี๊ยว,Noodle House,13.71852846107765,100.4682544601889
966,Bangkok Yai,หลุยส์ บะหมี่เกี๊ยวกุ้ง ตลาดพลู,Noodle House,13.720939914492558,100.47742969551803
967,Bangkok Yai,Panda King,Cantonese Restaurant,13.713495801458397,100.4789400100708
968,Bangkok Yai,Caffè D´Oro (คาเฟ ดิโอโร่),Coffee Shop,13.711740658331276,100.47876625891584
969,Bangkok Yai,โจ๊กหมูทอง,Asian Restaurant,13.712340174764275,100.4883412433204
970,Bangkok Yai,CUBE by Moody's Bar,Bar,13.71701443221472,100.4816211383124
971,Bangkok Yai,The Mall Thapra (เดอะมอลล์ ท่าพระ),Shopping Mall,13.713376365261015,100.47950298435727
972,Bangkok Yai,BTS Pho Nimit (S9) (BTS โพธิ์นิมิตร),Train Station,13.719225103925666,100.48575608017936
973,Bangkok Yai,บ่อตกกุ้ง รัชดา ซอย 8,Seafood Restaurant,13.710240306704176,100.48067475110831
974,Bangkok Yai,ก๋วยเตี๋ยวลูกชิ้นปลานายหมง,Noodle House,13.722437061816027,100.48292588987704
975,Bangkok Yai,Fitness First (ฟิตเนส เฟิรส์ท),Gym / Fitness Center,13.713820454560597,100.48057315632555
976,Bangkok Yai,Sfree Jr.,Ice Cream Shop,13.713082930765578,100.47960180694406
977,Bangkok Yai,Siam Rattana (สยามรัตนา),Supermarket,13.726271411281719,100.49380043006992
978,Bangkok Yai,320SP,Motorcycle Shop,13.72692718829643,100.49400994103242
979,Bangkok Yai,Bang Phai Thong Chicken Rice (ข้าวมันไก่บางไผ่ทอง),Thai Restaurant,13.721063172609744,100.45895358854366
980,Bangkok Yai,Charoen Chai (เจริญชัย),Thai Restaurant,13.721706606194628,100.49156703932562
981,Bangkok Yai,Khlong Bang Luang Floating Market (ตลาดน้ำคลองบางหลวง),Floating Market,13.731874576070714,100.46307831343506
982,Bangkok Yai,Yum Saap (ยำแซ่บ),Thai Restaurant,13.713224803499063,100.47986268997192
983,Bangkok Yai,เกาเหลาเนื้อเปื่อย ต.จันทร์เพ็ญ,Soup Place,13.720731248202874,100.47775225630163
984,Bangkok Yai,MaxValu Tanjai (แม็กซ์แวลู ทันใจ),Convenience Store,13.709845935023212,100.48024510782696
985,Bangkok Yai,ก๋วยเตี๋ยวต้มยำเจ๊ยี่,Noodle House,13.71647055814113,100.47218413598475
986,Bangkok Yai,SF Cinema City (เอส เอฟ ซีเนม่า ซิตี้),Multiplex,13.713538235797191,100.47986258931982
987,Bangkok Yai,Pepper Lunch (เปปเปอร์ ลันช์),Japanese Restaurant,13.712977837050678,100.47920589290352
988,Bangkok Yai,OOTOYA (โอโตยะ),Japanese Restaurant,13.713694657610422,100.48046186434013
989,Bangkok Yai,BTS Wutthakat (S11) (BTS วุฒากาศ),Train Station,13.71296639955296,100.46881979596314
990,Bangkok Yai,Steak Lung Nhuad (สเต็กลุงหนวด),Steakhouse,13.708409360754782,100.48046735215556
991,Bangkok Yai,บ๋วยเกี้ย,Dessert Shop,13.726195624554284,100.49421452218814
992,Bangkok Yai,ก๋วยเตี๋ยวลูกชิ้นปลาพรชัย,Noodle House,13.721270066354466,100.47871962080106
993,Bangkok Yai,Bangkok Loft Inn (บางกอก ลอฟท อินน์),Hotel,13.721973448346848,100.4917658442525
994,Bangkok Yai,ตลาดเสนีย์,Market,13.722508888500823,100.46082642609011
995,Bangkok Yai,Camelian Theme Studio & Café (คาเมเลี่ยน ธีมสตูดิโอ),Photography Studio,13.724226141533228,100.47563031891819
996,Bangkok Yai,Mei Yuan Restaurant (ภัตตาคารเหมยหยวน),Chinese Restaurant,13.711877929673197,100.47483282418504
997,Bangkok Yai,Jolly Suites & Spa Bangkok (โรงแรมจอลลี่สวีท แอนด์ สปา),Hotel,13.711742609014069,100.4750290061518
998,Bangkok Yai,แป๊ะยิ้มโภชนา,Thai Restaurant,13.71599538596926,100.48964127170004
999,Bangkok Yai,Hachiban Ramen (ฮะจิบัง ราเมน),Ramen Restaurant,13.712988058594794,100.47912156487784
1000,Bangkok Yai,BE Trend (บี เทรนด์),Paper / Office Supplies Store,13.713917814546093,100.47989278518205
1001,Bangkok Yai,สถานีรถไฟวงเวียนใหญ่ (Wongwian Yai) SRT5001,Train Station,13.724438113602991,100.49023680308387
1002,Bangkok Yai,The Pizza Company (เดอะ พิซซ่า คอมปะนี),Pizza Place,13.713187354559164,100.47888844487679
1003,Bangkok Yai,7-Eleven (เซเว่น อีเลฟเว่น),Convenience Store,13.719686977317577,100.46389818191528
1004,Bangkok Yai,ร้านข้าวต้มแปดริ้ว,Restaurant,13.715646019249256,100.48939677565434
1005,Bangkok Yai,Steak Lung Nhuad (สเต็กลุงหนวด),Steakhouse,13.723654871249021,100.49222171947729
1006,Bangkok Yai,Fuji (ฟูจิ),Japanese Restaurant,13.713358614488456,100.47907698568879
1007,Bangkok Yai,Wongwian Yai Market (ตลาดวงเวียนใหญ่),Market,13.724636148406933,100.49253248850633
1008,Bangkok Yai,Meehey & Gluadunk (มีเฮ & กลัวดัง),Pub,13.71023187393163,100.48033653231336
1009,Bangkok Yai,Chapayom (ชาพะยอม),Tea Room,13.724144967568453,100.49234708932579
1010,Bangkok Yai,Rot Loet (รสเลิศ),Seafood Restaurant,13.72693890512616,100.48907974086556
1011,Bangkok Yai,Studio7,Electronics Store,13.712694844384787,100.4799517163968
1012,Bangkok Yai,Chorleng (ฉอเล้ง),Noodle House,13.720723499924576,100.47744611205478
1013,Bangkok Yai,Krispy Kreme (คริสปี้ ครีม),Donut Shop,13.713330076294925,100.47928337899194
1014,Bangkok Yai,7-Eleven (เซเว่น อีเลฟเว่น),Convenience Store,13.726670094147345,100.46967029571533
1015,Bangkok Yai,Swensen's (สเวนเซ่นส์),Ice Cream Shop,13.713037511888428,100.47893630482051
1016,Bangkok Yai,7-Eleven (เซเว่น อีเลฟเว่น),Convenience Store,13.71689911217083,100.48151406895673
1017,Bangkok Yai,McDonald's (แมคโดนัลด์),Fast Food Restaurant,13.712978685605606,100.47891167665654
1018,Bangkok Yai,ก๋วยจั๊บน้ำข้นตลาดพลู,Noodle House,13.707787520683237,100.46906264123373
1019,Bangkok Yai,7-Eleven (เซเว่น อีเลฟเว่น),Convenience Store,13.714641456171627,100.47178966264248
1020,Bangkok Yai,นายเล็ก ก๋วยเตี๋ยวหมูต้มยำมะนาว,Noodle House,13.723460481645374,100.46111051445695
1021,Bangkok Yai,7-Eleven (เซเว่น อีเลฟเว่น),Convenience Store,13.721532,100.46824
1022,Bangkok Yai,Home Fresh Mart (โฮม เฟรช มาร์ท),Supermarket,13.713263281549223,100.47951945478098
1023,Bangkok Yai,7-Eleven (เซเว่น อีเลฟเว่น),Convenience Store,13.713310689532557,100.46771039082792
1024,Bangkok Yai,Chokdee Dimsum (โชคดีติ่มซำ),Dim Sum Restaurant,13.71750910927809,100.47782148675698
1025,Bangkok Yai,The October,Beer Bar,13.720742423654459,100.49386315205314
1026,Bangkok Yai,7-Eleven (เซเว่น อีเลฟเว่น),Convenience Store,13.714658162129604,100.47190629725583
1027,Bangkok Yai,7-Eleven (เซเว่น อีเลฟเว่น),Convenience Store,13.732504421863863,100.4818231473367
1028,Bangkok Yai,ข้าวต้มแปดริ้ว,Thai Restaurant,13.713896417452437,100.48898344548057
1029,Bangkok Yai,7-Eleven (เซเว่น อีเลฟเว่น),Convenience Store,13.732640341287894,100.4901984049236
1030,Bangkok Yai,KFC (เคเอฟซี),Fast Food Restaurant,13.712989389071991,100.47902176103071
1031,Bangkok Yai,MK (เอ็มเค),Hotpot Restaurant,13.712936802679296,100.48011095717585
1032,Bangkok Yai,Shabushi (ชาบูชิ),Shabu-Shabu Restaurant,13.713377942334413,100.47909937416351
1033,Bangkok Yai,7-Eleven (เซเว่น อีเลฟเว่น),Convenience Store,13.719305531697106,100.4883919549199
1034,Bangkok Yai,7-Eleven (เซเว่น อีเลฟเว่น),Convenience Store,13.714042784702023,100.46740351653003
1035,Bangkok Yai,Thonburi Suksa (ธนบุรีศึกษา),Paper / Office Supplies Store,13.726988002661082,100.4927524124265
1036,Bangkok Yai,7-Eleven (เซเว่น อีเลฟเว่น),Convenience Store,13.722959979343049,100.46201278396734
1037,Bangkok Yai,7-Eleven (เซเว่น อีเลฟเว่น),Convenience Store,13.713439,100.467735
1038,Bangkok Yai,MK (เอ็มเค),Hotpot Restaurant,13.713229172294119,100.47894551178881
1039,Bangkok Yai,7-Eleven (เซเว่น อีเลฟเว่น),Convenience Store,13.723240622239999,100.49243867216543
1040,Bangkok Yai,7-Eleven (เซเว่น อีเลฟเว่น),Convenience Store,13.70969608700447,100.48027709748408
1041,Bangkok Yai,"บริษัท ก๋วงเฮง (แม่กิมลั้ง) จำกัด Kuang Heng Co., Ltd.",Jewelry Store,13.727742185970188,100.49369173950845
1042,Bangkok Yai,Hot Pot Inter Buffet (ฮ๊อตพอต อินเตอร์บุฟเฟ่ต์),Hotpot Restaurant,13.71364335862684,100.48043002065243
1043,Bangkok Yai,Phoonsuph Restaurant (ครัวพูลทรัพย์),Thai Restaurant,13.72072426031788,100.49393370558688
1044,Bangkok Yai,Taksin5,Food Truck,13.720478362129242,100.49033018382924
1045,Bangkok Yai,7-Eleven (7-Eleven (เซเว่น อีเลฟเว่น)),Convenience Store,13.723872004574732,100.49222452662586
1046,Bueng Kum,Seri Thai Park (สวนเสรีไทย),Park,13.787508205509594,100.67360401153564
1047,Bueng Kum,เปิ้ล Pet Shop,Pet Store,13.775778683395844,100.66818987085651
1048,Bueng Kum,Golden Place (โกลเด้น เพลซ),Supermarket,13.778144791342761,100.67450824185279
1049,Bueng Kum,Starbucks (สตาร์บัคส์),Coffee Shop,13.77416155818493,100.66706239041935
1050,Bueng Kum,ก๋วยเตี๋ยวเนื้อ บัง สัมมากร,Noodle House,13.777585000514643,100.67655654097405
1051,Bueng Kum,ตลาดเช้า กลางหมู่บ้านสหกรณ์,Flea Market,13.792563080799791,100.67142451076047
1052,Bueng Kum,Sammakorn Weekend Market (ตลาดนัดสัมมากร),Flea Market,13.7750527065329,100.67425786949043
1053,Bueng Kum,Swensen's (สเวนเซ่นส์),Ice Cream Shop,13.77554666015784,100.66933904293455
1054,Bueng Kum,Tops Market (ท็อปส์ มาร์เก็ต),Supermarket,13.775534162405968,100.66925564246162
1055,Bueng Kum,เม้งปูดอง,Seafood Restaurant,13.777925751085592,100.66364517546965
1056,Bueng Kum,McDonald's & McCafé (แมคโดนัลด์ & แมคคาเฟ่),Fast Food Restaurant,13.773759264974974,100.66685208360298
1057,Bueng Kum,PharMax (ศูนย์รวมยาฟาร์แมกซ์),Pharmacy,13.776088611306674,100.6737097800223
1058,Bueng Kum,ก๋วยเตี๋ยวเรือป้ามณ,Noodle House,13.797027848424085,100.66926314162603
1059,Bueng Kum,ดีโอโรตีโอ่ง,Halal Restaurant,13.775173322565172,100.66849057106647
1060,Bueng Kum,เป๋โภชนา,Thai Restaurant,13.797157719163419,100.66930080966223
1061,Bueng Kum,Starbucks (สตาร์บัคส์),Coffee Shop,13.77611570312646,100.67365003298478
1062,Bueng Kum,เนื้อตุ๋น-หมูตุ๋น เดอะบาร์ 2527,Hotpot Restaurant,13.779595515911316,100.6778445409263
1063,Bueng Kum,7-Eleven (เซเว่น อีเลฟเว่น),Convenience Store,13.77947112553702,100.67925690800048
1064,Bueng Kum,Navatanee Sport Club,Gym Pool,13.788843451968376,100.67807616304847
1065,Bueng Kum,ก๋วยเตี๋ยวเรือ โก๋ตั้ง สูตรเด็ดใบไม้,Noodle House,13.772592548573147,100.66912416403343
1066,Bueng Kum,Nawaminphirom Park (Bueng Lam Phang Phuai) (สวนนวมินทร์ภิรมย์ (บึงลำพังพวย)),Park,13.785904986352321,100.65259217649604
1067,Bueng Kum,The Paseo Town (เดอะพาซิโอ ทาวน์),Shopping Mall,13.774317165103541,100.66687481220957
1068,Bueng Kum,vistacafé (วิสต้าคาเฟ่),Café,13.776654473824525,100.67344260717086
1069,Bueng Kum,วิโรจน์ก๋วยเตี๋ยวเรือ,Noodle House,13.799386187249016,100.66846561164265
1070,Bueng Kum,ร้านบางใหญ่ ผัดไทย-หอยทอด,Thai Restaurant,13.774786576453707,100.66914314876443
1071,Bueng Kum,วิโรจน์โภชนา,Thai Restaurant,13.799304395310156,100.66847150615007
1072,Bueng Kum,วัฒนาพานิช เกาเหลาเนื้อ,Noodle House,13.790266200526125,100.65173213228614
1073,Bueng Kum,ร้านขนม สัมมากร,Bakery,13.773179165508626,100.6758939125405
1074,Bueng Kum,Café Amazon (คาเฟ่ อเมซอน),Coffee Shop,13.78778960617568,100.67841241371934
1075,Bueng Kum,Kyoto Japanese Restaurant,Japanese Restaurant,13.769423421320962,100.67670899170017
1076,Bueng Kum,Thonburi Suksa (ธนบุรีศึกษา),Paper / Office Supplies Store,13.784508239402422,100.6872535771538
1077,Bueng Kum,Villa Market (วิลล่า มาร์เก็ท),Supermarket,13.775761339231797,100.67397571293093
1078,Bueng Kum,Starbucks,Coffee Shop,13.77516,100.669402
1079,Bueng Kum,KFC (เคเอฟซี),Fast Food Restaurant,13.773813481600138,100.66688155837694
1080,Bueng Kum,MURRAH HOUSE (buffalo Milk),Snack Place,13.776557079007434,100.67585626205094
1081,Bueng Kum,Neo Suki (นีโอสุกี้),Hotpot Restaurant,13.776089569619634,100.67363541484768
1082,Bueng Kum,Step1,Café,13.788960828436121,100.67376062327261
1083,Bueng Kum,บ้านผักหวาน,Thai Restaurant,13.778450538265579,100.67571745320936
1084,Bueng Kum,Hokkaido Milk (ฮอกไกโด มิลค์),Dessert Shop,13.774226151088696,100.66702790890642
1085,Bueng Kum,เป็ดย่างพงษ์กี่,Chinese Restaurant,13.771519920166563,100.66423038445848
1086,Bueng Kum,Brioche Coffee,Bakery,13.793325429329649,100.67095065933735
1087,Bueng Kum,Au Bon Pain (โอ บอง แปง),Café,13.774063634172945,100.66756302140516
1088,Bueng Kum,ช.หมูแดง หมูกรอบ,Noodle House,13.778893617124584,100.67962223132379
1089,Bueng Kum,Villa Market (วิลล่า มาร์เก็ท),Supermarket,13.774009594876777,100.6669893242802
1090,Bueng Kum,Krua Nang Ta Lung (ครัวหนังตะลุง),Thai Restaurant,13.778349693205026,100.6643381629236
1091,Bueng Kum,แก้มลิง แยกนิด้า,Dive Bar,13.773867600174176,100.65494720979217
1092,Bueng Kum,ไทยอีสาน,Som Tum Restaurant,13.794284254351371,100.67011505111047
1093,Bueng Kum,สุทินโภชนา,Thai Restaurant,13.772364540938677,100.6809847074864
1094,Bueng Kum,Sammakorn Place (สัมมากรเพลส),Shopping Mall,13.776143140969745,100.67358606581146
1095,Bueng Kum,แสนอร่อยโภชนา,Chinese Restaurant,13.780717472006764,100.68072340664901
1096,Bueng Kum,ZEN (เซน),Japanese Restaurant,13.774256987695534,100.66709334702473
1097,Bueng Kum,Tesco Lotus Supermarket (เทสโก้ โลตัส),Supermarket,13.78437150690899,100.67391457200392
1098,Bueng Kum,Move Fitness,Gym / Fitness Center,13.776078542076787,100.67348643321888
